iso3,label,sublabel,latitude,longitude
CA,THUNDER BAY,,48.4,-89.233333
TG,LOME,,6.133333,1.283333
ID,UJUNG PANDANG,,-5.133333,119.4
CA,COBOURG,,43.95,-78.166667
CA,PORT HOPE,,43.933333,-78.283333
CA,OSHAWA,,43.866667,-78.816667
CA,PORT WHITBY,,43.85,-78.933333
CA,PORT CREDIT,,43.55,-79.583333
CA,OAKVILLE,,43.433333,-79.666667
CA,BRONTE,,43.4,-79.716667
CA,PORT DALHOUSIE,,43.216667,-79.266667
EE,MUUGA-PORT OF TALLIN,,59.5,24.95
EE,TALLINN,,59.45,24.766667
EE,PALDISKI,,59.35,24.033333
NL,SCHEVENINGEN,,52.1,4.266667
IL,ASHDOD,,31.816667,34.65
IL,HAIFA,,32.816667,35
JP,NAHA KO,,26.216667,127.683333
QM,MIDWAY ISLAND,,28.183333,-177.366667
CA,STEPHENVILLE,,48.533333,-58.533333
BE,ZEEBRUGGE,,51.333333,3.2
CW,WILLEMSTAD,,12.116667,-68.933333
MZ,PEMBA,,-12.966667,40.5
YE,AL AHMADI,,14.833333,42.966667
YE,SALIF,,15.3,42.666667
SO,MUQDISHO,,2.033333,45.35
SO,KISMAAYO,,-0.366667,42.55
GN,CONAKRY,,9.516667,-13.716667
GB,HEYSHAM,,54.033333,-2.916667
RO,MANGALIA,,43.816667,28.583333
RO,CONSTANTA,,44.166667,28.65
BJ,COTONOU,,6.35,2.433333
GB,ROTHESAY HARBOR,,55.833333,-5.05
GB,ARDROSSAN,,55.65,-4.816667
GB,TROON,,55.55,-4.683333
KP,HUNGNAM,,39.833333,127.616667
KP,CH'AHO,,40.2,128.65
TW,CHI-LUNG,,25.133333,121.766667
TW,SU-AO,,24.6,121.866667
TW,HUA-LIEN KANG,,23.983333,121.6
TW,KAO-HSIUNG,,22.616667,120.25
TW,MAILIAO,,23.783333,120.166667
GR,ORMOS ALIVERIOU,,38.383333,24.05
GR,VOLOS,,39.366667,22.95
GR,ALEXANDROUPOLI,,40.833333,25.883333
GR,NAVPLIO,,37.566667,22.8
GR,AYIOS NIKOLAOS,,37.983333,23.533333
GR,PIRAIEVS,,37.933333,23.65
GR,LAVRIO,,37.7,24.066667
GR,KAVALA,,40.933333,24.4
IR,BANDAR-E SHAHID REAJIE,,27.1,56.066667
IR,BANDAR ABBAS,,27.15,56.2
PL,PORT POLNOCHNY,,54.4,18.716667
PL,GDYNIA,,54.533333,18.55
UY,MONTEVIDEO,,-34.9,-56.216667
GT,PUERTO QUETZAL,,13.916667,-90.8
DK,RUDKOBING,,54.95,10.716667
SD,PORT SUDAN,,19.6,37.233333
PT,PORTO DE LEIXOES,,41.183333,-8.7
PT,SINES,,37.95,-8.866667
AU,PORT LINCOLN,,-34.716667,135.85
AU,ESPERANCE,,-33.866667,121.9
AU,BUNBURY,,-33.316667,115.633333
AU,FREMANTLE,,-32.05,115.75
AU,GERALDTON,,-28.783333,114.6
AU,DAMPIER,,-20.633333,116.716667
AU,WHYALLA,,-33.033333,137.583333
AU,NEWCASTLE,,-32.916667,151.783333
AU,PORT KEMBLA,,-34.483333,150.916667
AU,EDEN,,-37.066667,149.916667
AU,WARRNAMBOOL,,-38.4,142.483333
AU,PORTLAND,,-38.333333,141.6
AU,KINGSCOTE,,-35.633333,137.633333
AU,TOWNSVILLE,,-19.266667,146.816667
AU,MACKAY,,-21.116667,149.216667
NA,LUDERITZ BAY,,-26.65,15.15
GB,DOUGLAS,,54.15,-4.466667
GB,RAMSEY,,54.316667,-4.366667
CV,PORTO DA PRAIA,,14.916667,-23.516667
CU,MARIEL,,22.983333,-82.75
CU,BAHAI DE LA HABANA,,23.133333,-82.366667
CU,CAYO MOA GRANDE,,20.666667,-74.9
IE,ROSSLARE,,52.25,-6.333333
IE,DUBLIN,,53.35,-6.25
TN,LA GOULETTE,,36.8,10.3
TN,BANZART,,37.283333,9.883333
TN,MERSA SFAX,,34.733333,10.766667
TN,SOUSSE,,35.833333,10.65
TN,GABES,,33.9,10.116667
TN,ZARZIS,,33.5,11.116667
TN,RADES,,36.816667,10.3
TN,TABARKA,,36.966667,8.766667
AW,PAARDEN BAAI - (ORANJESTAD),,12.516667,-70.033333
AW,SINT NICOLAAS BAAI,,12.433333,-69.916667
IT,TORRE ANNUNZIATA,,40.75,14.45
IT,CASTELLAMMARE DI STABIA,,40.7,14.483333
IT,SALERNO,,40.666667,14.75
IT,VIBO VALENTIA MARINA,,38.716667,16.133333
IT,REGGIO DI CALABRIA,,38.116667,15.65
IT,PORTOVECCHIO DI PIOMBINO,,42.933333,10.55
IT,PORTO SANTO STEFANO,,42.433333,11.116667
IT,CIVITAVECCHIA,,42.1,11.783333
IT,ANZIO,,41.45,12.633333
IT,GAETA,,41.2,13.583333
IT,POZZUOLI,,40.816667,14.116667
IT,NAPOLI,,40.85,14.266667
SE,STROMSTAD,,58.933333,11.166667
SE,LYSEKIL,,58.266667,11.433333
SE,VARBERG,,57.116667,12.25
SE,FALKENBERG,,56.9,12.5
SE,HALMSTAD,,56.666667,12.866667
SE,HOGANAS,,56.2,12.55
SE,HELSINGBORG,,56.05,12.7
SE,MALMO,,55.616667,13
SE,LIMHAMN,,55.583333,12.933333
SE,TRELLEBORG,,55.366667,13.15
SE,YSTAD,,55.433333,13.833333
SE,KARLSKRONA,,56.166667,15.6
SE,KALMAR,,56.666667,16.366667
FR,PORT-VENDRES,,42.516667,3.116667
FR,SETE,,43.4,3.7
FR,FOS,,43.416667,4.883333
FR,PORT-DE-BOUC,,43.4,4.983333
FR,MARSEILLE,,43.316667,5.366667
FR,SAINT-TROPEZ,,43.266667,6.633333
FR,SAINT-RAPHAEL,,43.416667,6.766667
FR,ANTIBES,,43.583333,7.133333
FR,NICE,,43.7,7.283333
FR,VILLEFRANCHE,,43.7,7.316667
FR,TOULON,,43.1,5.916667
RE,PORT EST,,-20.933333,55.316667
RE,PORT OUEST,,-20.933333,55.283333
CA,GODERICH,,43.75,-81.733333
CA,PORT ELGIN,,44.433333,-81.4
CA,SOUTHAMPTON,,44.5,-81.383333
CA,LIONS HEAD,,44.983333,-81.25
CA,MEAFORD,,44.616667,-80.6
CA,THORNBURY,,44.566667,-80.45
CA,COLLINGWOOD,,44.5,-80.233333
CA,THESSALON,,46.25,-83.566667
ES,ROTA,,36.616667,-6.333333
ES,CADIZ,,36.533333,-6.3
ES,ALGECIRAS,,36.133333,-5.433333
MY,KUANTAN NEW PORT,,3.966667,103.433333
LK,COLOMBO,,6.95,79.85
LK,GALLE HARBOR,,6.016667,80.216667
IS,REYKJAVIK,,64.15,-21.933333
IS,GRUNDARTANGI,,64.266667,-22
IS,BOLUNGAVIK,,66.166667,-23.233333
TR,ALIAGA,,38.833333,26.933333
EG,DAMIETTA,,31.483333,31.75
EG,MERSA MATRUH,,31.35,27.233333
EG,EL MAADIYA,,31.266667,30.15
EG,AL ISKANDARIYH (ALEXANDRIA),,31.166667,29.833333
YE,AL MUKALLA,,14.516667,49.116667
DK,RINGKOBING,,56.083333,8.25
DK,THYBORON,,56.7,8.216667
DK,ABENRA,,55.05,9.433333
DK,HORSENS,,55.866667,9.85
DK,ARHUS,,56.15,10.216667
DK,GRENAA HAVN,,56.416667,10.933333
DK,FREDERIKSHAVN,,57.433333,10.55
DK,SKAGEN HAVN,,57.716667,10.6
DK,HIRTSHALS,,57.6,9.966667
DK,HANSTHOLM,,57.133333,8.6
DK,LEMVIG,,56.583333,8.283333
DK,HOLSTEBRO-STUER,,56.5,8.583333
DK,THISTED,,56.95,8.7
US,BUFFALO,,42.883333,-78.883333
US,DUNKIRK,,42.483333,-79.333333
US,CLEVELAND,,41.5,-81.716667
CR,PUERTO MOIN,,10,-83.083333
CR,PUERTO LIMON,,9.983333,-83.016667
PR,ARECIBO,,18.483333,-66.7
PR,BAHIA DE FAJARDO,,18.333333,-65.633333
PR,ENSENADA HONDA,,18.233333,-65.633333
PR,BAHIA DE JOBOS,,17.95,-66.183333
PR,PLAYA DE PONCE,,17.983333,-66.616667
PR,PLAYA DE GUAYANILLA,,18.016667,-66.766667
GR,IRAKLION,,35.35,25.15
GR,RETHIMNON,,35.366667,24.466667
TR,MERSIN,,36.8,34.633333
TR,ISKENDERUN,,36.6,36.166667
TR,ANTALYA,,36.833333,30.616667
TR,TASUCU,,36.316667,33.883333
TR,HOPA,,41.416667,41.4
TR,RIZE,,41.066667,40.516667
TR,TRABZON,,41.016667,39.766667
TR,GIRESUN,,40.933333,38.4
TR,SAMSUN,,41.3,36.35
TR,INEBOLU,,41.983333,33.766667
TR,ZONGULDAK,,41.466667,31.816667
TR,EREGLI,,41.3,31.45
TR,HAYDARPASA,,41,29.016667
TR,DERINCE BURNU,,40.75,29.816667
TR,GOLCUK BURNU,,40.733333,29.816667
TR,BANDIRMA,,40.35,27.966667
TR,NEMRUT LIMANI BAY,,38.766667,26.916667
TR,MARMARIS,,36.85,28.283333
TR,FETHIYE,,36.633333,29.1
TR,YAKACIK,,36.716667,36.183333
TR,GULLUK,,37.25,27.616667
VU,PORT VILA,,-17.733333,168.316667
CA,SOURIS HARBOUR,,46.35,-62.25
EG,BUR SAFAGA,,26.733333,33.95
EG,AS SUWAYS,,29.966667,32.55
EG,NORTH AIN SUKHNA PORT,,29.65,32.366667
EG,SOKHNA PORT GAS TANKER TERMINAL,,29.683333,32.366667
ID,SABANG,,5.883333,95.316667
CO,PUERTO BOLIVAR,,12.25,-71.966667
MX,GUAYMAS,,27.916667,-110.916667
MX,SANTA ROSALIA,,27.333333,-112.283333
MX,ENSENADA,,31.866667,-116.633333
MX,MANZANILLO,,19.05,-104.316667
MX,SALINA CRUZ,,16.166667,-95.2
MX,PICHILINGUE,,24.266667,-110.333333
DK,MARSTAL,,54.916667,10.333333
DK,AEROSKOBING,,54.883333,10.416667
TH,LAEM CHABANG,,13.083333,100.883333
TH,MAP TA PHUT,,12.666667,101.166667
TH,SATTAHIP,,12.616667,100.916667
ME,RISAN,,42.516667,18.7
ME,TIVAT,,42.433333,18.7
ME,BAR,,42.083333,19.083333
RU,SANKT-PETERBURG,,59.933333,30.3
RU,KRONSHTADT,,59.983333,29.783333
CY,KYRENIA,,35.35,33.333333
CY,LIMASSOL,,34.666667,33.05
CY,LARNACA,,34.916667,33.65
CY,FAMAGUSTA,,35.116667,33.933333
PA,PUERTO CRISTOBAL,,9.35,-79.916667
PA,PUERTO COLON,,9.366667,-79.883333
DK,NEKSO,,55.066667,15.133333
DK,RONNE,,55.1,14.7
DK,HASLE,,55.183333,14.7
DK,CHRISTIANSO HARBOR,,55.316667,15.183333
JM,MONTEGO BAY,,18.466667,-77.933333
MU,PORT LOUIS,,-20.15,57.5
MY,BINTULU PORT,,3.266667,113.066667
LR,MONROVIA,,6.316667,-10.816667
LR,BUCHANAN,,5.866667,-10.066667
OM,MINA RAYSUT,,16.933333,54.016667
OM,MINA QABUS,,23.633333,58.583333
OM,PORT OF SOHAR,,24.516667,56.633333
GB,LOWESTOFT,,52.483333,1.75
GB,BRIDLINGTON,,54.083333,-0.183333
GB,SCARBOROUGH,,54.283333,-0.4
GB,WHITBY,,54.483333,-0.616667
FR,RADE DE BREST,,48.383333,-4.5
FR,CONCARNEAU,,47.866667,-3.916667
UA,YALTA,,44.483333,34.166667
UA,FEODOSIYA,,45.016667,35.433333
UA,BERDYANSK,,46.75,36.783333
UA,MARIUPOL,,47.083333,37.566667
UA,SKADOVS'K,,46.1,32.916667
UA,ILLICHIVSK,,46.3,30.65
UA,ODESA,,46.483333,30.733333
UA,DNIPRO-BUZKYY,,46.733333,31.883333
PH,CEBU,,10.3,123.9
PH,SAN CARLOS,,10.483333,123.416667
PH,PORT CAPIZ,,11.6,122.716667
PH,SANTA CRUZ (MARINDUQUE ISL),,13.5,122.066667
PH,MANILA,,14.583333,120.966667
MC,MONACO,,43.733333,7.416667
US,PORT WING,,46.783333,-91.383333
US,SUPERIOR,,46.733333,-92.066667
US,DULUTH,,46.766667,-92.1
US,TWO HARBORS,,47.016667,-91.65
US,GRAND MARAIS,,46.683333,-85.966667
US,MARQUETTE,,46.533333,-87.383333
US,PRESQUE ISLE,,46.566667,-87.383333
KP,HAEJU HANG,,38,125.7
TZ,MTWARA,,-10.266667,40.2
GR,LIMIN SIROU,,37.433333,24.95
GR,AKRA KAVONISI,,35.516667,23.633333
CG,POINTE NOIRE,,-4.783333,11.833333
DK,KERTEMINDE,,55.45,10.666667
DK,NYBORG,,55.316667,10.8
DK,MIDDELFART,,55.5,9.733333
DK,ASSENS,,55.266667,9.883333
CA,CHANDLER,,48.366667,-64.666667
GB,MACDUFF,,57.666667,-2.5
GB,DUNBAR,,56,-2.516667
GB,GRANTON,,55.983333,-3.216667
GB,PETERHEAD,,57.5,-1.783333
GB,FRASERBURGH HARBOR,,57.683333,-2
GB,BUCKIE HARBOR,,57.683333,-2.966667
GB,LOSSIEMOUTH,,57.716667,-3.283333
GB,CROMARTY,,57.683333,-4.033333
GB,PORTMAHOMACK HARBOR,,57.833333,-3.833333
GB,HELMSDALE HARBOR,,58.116667,-3.65
GB,WICK,,58.433333,-3.083333
US,ADAK NAVAL AIR STATION,,51.866667,-176.633333
US,CRESCENT CITY,,41.75,-124.2
US,PRINCETOWN,,37.5,-122.483333
US,LONG BEACH,,33.766667,-118.183333
US,LOS ANGELES,,33.75,-118.25
US,PORT HUENEME,,34.15,-119.2
US,SANTA BARBARA,,34.416667,-119.683333
US,MORRO BAY,,35.366667,-120.85
US,NEAH BAY,,48.366667,-124.616667
FR,BASTIA,,42.7,9.45
FR,PORT DE PROPRIANO,,41.683333,8.9
FR,PORT D' AJACCIO,,41.916667,8.75
FR,L'ILE ROUSSE,,42.633333,8.933333
CA,BONAVISTA HARBOR,,48.65,-53.116667
DK,STUBBEKOBING,,54.883333,12.05
DK,STEGE,,54.983333,12.283333
GB,SAINT HELIER HARBOUR,,49.183333,-2.116667
GB,ALDERNEY HARBOUR,,49.733333,-2.2
GB,SAINT SAMPSON,,49.483333,-2.516667
GB,SAINT PETER PORT,,49.45,-2.533333
MA,TANGER,,35.783333,-5.816667
MA,PORT NADOR,,35.283333,-2.933333
MA,MOHAMMEDIA,,33.716667,-7.4
MA,CASABLANCA,,33.6,-7.616667
MA,SAFI,,32.3,-9.25
MA,TANGIER-MEDITERRANEAN,,35.9,-5.516667
ES,CUETA,,35.9,-5.316667
MA,PORT D AL HOCEIMA,,35.25,-3.916667
MA,EL JADIDA,,33.25,-8.5
MA,AGADIR,,30.433333,-9.633333
MA,EL JORF LASFAR,,33.116667,-8.616667
AE,FUJAYRAH HARBOR,,25.166667,56.333333
AE,MINA SAQR,,25.983333,56.05
AE,AL HAMRIYAH LPG TERMINAL,,25.466667,55.483333
AE,DUBAYY,,25.266667,55.3
AE,MINA JABAL ALI,,25.016667,55.05
AE,ABU ZABY,,24.5,54.333333
AE,JABAL AZ ZANNAH/RUWAYS,,24.2,52.7
AE,ASH SHARIQAH,,25.416667,55.366667
ZA,RICHARDS BAY,,-28.816667,32.083333
ZA,SALDANHA BAY,,-33.033333,17.966667
ZA,CAPE TOWN,,-33.916667,18.416667
ZA,SIMONSTOWN,,-34.183333,18.433333
ZA,MOSSEL BAY,,-34.183333,22.15
ZA,PORT ELIZABETH,,-33.966667,25.616667
ZA,DURBAN,,-29.866667,31.066667
MX,VERACRUZ,,19.2,-96.133333
MX,CIUDAD DEL CARMEN,,18.633333,-91.866667
GB,KIRKWALL,,58.983333,-2.966667
KH,KAMPONG SAOM,,10.633333,103.5
EC,MANTA,,-0.95,-80.716667
FR,CALAIS,,50.966667,1.85
FR,SAINT-VALERY-SUR-SOMME,,50.183333,1.616667
FR,PORT DU HAVRE-ANTIFER,,49.65,0.15
NO,HUSNES,,59.866667,5.766667
NO,AKRAHAMN,,59.266667,5.183333
NO,STAVANGER,,58.966667,5.75
NO,SKUDENESHAVN,,59.15,5.266667
NO,TANANGER,,58.933333,5.583333
NO,KIRKEHAMN,,58.233333,6.533333
NO,STUSVIK,,58,7.033333
NO,ARENDAL,,58.466667,8.766667
NO,KRAGERO,,58.866667,9.416667
NO,LARVIK,,59.05,10.033333
NO,HOLMESTRAND,,59.483333,10.3
NO,DRAMMEN,,59.733333,10.25
NO,DROBAK,,59.666667,10.65
NO,BUD,,62.9,6.916667
NO,HAREID,,62.366667,6.033333
NO,ALESUND,,62.466667,6.166667
NO,FLORO,,61.6,5.033333
NO,STOKKMARKNES,,68.566667,14.916667
NO,NARVIK,,68.433333,17.416667
NO,BODO,,67.283333,14.383333
NO,VADSO,,70.066667,29.75
CN,BASUO,,19.1,108.616667
SE,ORNSKOLDSVIK,,63.283333,18.716667
SE,UMEA HAMN,,63.7,20.35
SE,VASTERVIK,,57.766667,16.65
SE,STOCKHOLM,,59.333333,18.05
GR,MITILINI,,39.1,26.566667
GR,PLOMARION,,38.983333,26.366667
GR,KHIOS,,38.366667,26.133333
GR,NEON KARLOVAS,,37.8,26.683333
GR,PITHAGORION,,37.683333,26.95
LY,MERSA TOBRUQ,,32.083333,23.983333
LY,DARNAH,,32.766667,22.65
LY,BANGHAZI,,32.116667,20.05
LY,AL BURAYQAH,,30.416667,19.6
LY,MINA TARABULUS (TRIPOLI),,32.9,13.183333
IO,DIEGO GARCIA,,-7.35,72.466667
SI,PIRAN,,45.533333,13.566667
FO,TORSHAVN,,62,-6.75
FO,KONGSHAVN,,62.116667,-6.733333
GB,BRIDPORT HARBOUR,,50.716667,-2.766667
GB,NEWLYN,,50.1,-5.55
GB,PAR,,50.35,-4.7
GB,MEVAGISSEY,,50.266667,-4.783333
GB,BRIXHAM HARBOUR,,50.4,-3.516667
GB,TORQUAY HARBOUR,,50.466667,-3.533333
GB,PORTLAND HARBOUR,,50.583333,-2.433333
GB,DOVER HARBOR,,51.116667,1.333333
GB,RAMSGATE,,51.333333,1.416667
GB,FOLKESTONE HARBOUR,,51.083333,1.2
GB,FISHGUARD,,52.016667,-4.983333
GB,PORT TALBOT,,51.583333,-3.816667
GB,HOLYHEAD,,53.316667,-4.633333
ES,BERMEO,,43.416667,-2.716667
ES,PUERTO DE BILBAO,,43.35,-3.05
ES,GIJON,,43.55,-5.666667
ES,MARIN,,42.4,-8.7
ES,VIGO,,42.233333,-8.716667
DE,HEILIGENHAFEN,,54.366667,10.983333
DE,STRALSUND,,54.316667,13.1
DE,ORTH,,54.45,11.05
IT,MESSINA,,38.2,15.566667
IT,PORTO DI PALERMO,,38.133333,13.366667
IT,TRAPANI,,38.016667,12.5
IT,MARSALA,,37.783333,12.433333
IT,PORTO EMPEDOCLE,,37.283333,13.533333
IT,LICATA,,37.1,13.933333
IT,GELA,,37.066667,14.25
IT,SIRACUSA,,37.05,15.283333
IT,AUGUSTA,,37.216667,15.233333
IT,CATANIA,,37.5,15.1
IT,TERMINI IMERESE,,37.983333,13.7
BB,BRIDGETOWN,,13.1,-59.633333
KR,MUKHO,,37.566667,129.116667
KR,SOKCH'O HANG,,38.2,128.6
KR,PUSAN,,35.1,129.033333
KR,CHEJU HANG,,33.516667,126.533333
KR,YOSU,,34.733333,127.75
KR,TONGHAE,,37.533333,129.15
BR,PORTO DE SUAPE,,-8.4,-34.966667
BR,PORTOCEL,,-19.85,-40.05
BR,RECIFE,,-8.05,-34.866667
BR,PORTO DE MACEIO,,-9.666667,-35.733333
BR,PORT OF ILHEUS,,-14.783333,-39.016667
BR,PORT DE SALVADOR,,-12.966667,-38.516667
BR,TUBARAO,,-20.283333,-40.25
QA,RAS LAFFAN,,25.916667,51.583333
DZ,ANNABA,,36.916667,7.766667
DZ,SKIKDA,,36.883333,6.916667
DZ,BEJAIA,,36.75,5.083333
DZ,DELLYS,,36.916667,3.916667
DZ,ALGER,,36.766667,3.066667
DZ,MOSTAGANEM,,35.933333,0.083333
DZ,ARZEW,,35.85,-0.3
DZ,ARZEW EL DJEDID,,35.816667,-0.25
DZ,ORAN,,35.7,-0.633333
DZ,MERS EL KEBIR,,35.733333,-0.7
DZ,BENI SAF,,35.3,-1.383333
DZ,GHAZAOUET,,35.1,-1.866667
DZ,JIJEL,,36.833333,5.783333
DZ,PORT METHANIER,,36.883333,6.95
DZ,DJEN-DJEN,,36.816667,5.883333
IN,TUTICORIN,,8.8,78.166667
IN,CHENNAI (MADRAS),,13.1,80.3
IN,KAKINADA BAY,,17,82.316667
IN,VISHAKHAPATNAM,,17.683333,83.3
IN,PARADIP,,20.266667,86.683333
IN,KAMARAJAR PORT,,13.266667,80.316667
IN,KARAIKAL PORT,,10.833333,79.866667
SE,DEGERHAMN,,56.35,16.416667
CA,VICTORIA HARBOR,,48.433333,-123.383333
CA,WESTVIEW,,49.833333,-124.516667
CA,POWELL RIVER,,49.866667,-124.533333
IT,IMPERIA,,43.883333,8.033333
IT,SAVONA,,44.316667,8.5
IT,GENOVA,,44.4,8.933333
IT,LA SPEZIA,,44.1,9.833333
IT,MARINA DI CARRARA,,44.033333,10.033333
IT,LIVORNO,,43.55,10.316667
CA,KINGSVILLE,,42.016667,-82.733333
RU,KORSAKOV,,46.616667,142.766667
RU,NEVELSK,,46.666667,141.866667
RU,KHOLMSK,,47.05,142.05
PT,LAJES,,38.4,-28.266667
PT,PONTA DELGADA,,37.733333,-25.666667
PT,HORTA,,38.533333,-28.633333
GR,RODHOS,,36.45,28.233333
AU,STANLEY,,-40.766667,145.283333
AU,BURNIE,,-41.05,145.95
JP,MOMBETSU KO,,44.35,143.35
JP,ABASHIRI KO,,44.016667,144.283333
JP,NEMURO KO,,43.333333,145.583333
JP,HANASAKI KO,,43.283333,145.583333
JP,KUSHIRO KO,,42.983333,144.366667
JP,TOMAKOMAI KO,,42.633333,141.633333
JP,HAKODATE KO,,41.783333,140.716667
JP,ESASI KO,,41.866667,140.116667
JP,OTARU KO,,43.2,141.016667
JP,RUMOI KO,,43.95,141.633333
JP,WAKKANAI,,43.416667,141.683333
JP,AOMORI KO,,40.833333,140.75
JP,HACHINOHE KO,,40.533333,141.55
JP,MIYAKO,,39.633333,141.983333
JP,ONAGAWA,,38.45,141.45
JP,ONAHAMA KO,,36.933333,140.9
JP,KASHIMA KO,,35.933333,140.7
JP,KISARAZU KO,,35.366667,139.883333
JP,CHIBA KO,,35.583333,140.066667
JP,KATSUNAN KO,,35.666667,139.983333
JP,KAWASAKI KO,,35.5,139.766667
JP,YOKOHAMA KO,,35.45,139.583333
JP,OITA KO,,33.25,131.666667
JP,SAGANOSEKI KO,,33.25,131.866667
JP,TSUKUMI KO,,33.083333,131.866667
JP,SAIKI KO,,32.966667,131.933333
JP,HOSOSHIMA KO,,32.433333,131.666667
JP,SHIBUSHI WAN,,31.466667,131.1
JP,MINAMATA KO,,32.2,130.383333
JP,MIIKE KO,,33,130.416667
JP,HAKATA,,33.6,130.4
JP,HAMADA KO,,34.9,132.083333
JP,AKITA-FUNAKAWA KO,,39.833333,140
JP,TAKAMATSU,,34.35,134.05
JP,KOMATSUSHIMA,,34.016667,134.6
JP,TACHIBANA,,33.866667,134.666667
JP,SUSAKI KO,,33.383333,133.3
JP,MATSUYAMA,,33.85,132.7
JP,KIKUMA KO,,34.033333,132.833333
JP,IMABARI KO,,34.066667,133.016667
JP,NIIHAMA,,33.983333,133.283333
JP,MARUGAME KO,,34.3,133.783333
JP,UBE KO,,33.933333,131.233333
JP,SHIMODA KO,,34.666667,138.95
JP,OMAEZAKI KO,,34.6,138.233333
JP,NAGOYA KO,,35.066667,136.866667
JP,YOKKAICHI,,34.966667,136.633333
JP,WAKAYAMA-SHIMOTSU KO,,34.2,135.133333
JP,SAKAI-SENBOKU,,34.55,135.433333
JP,HIMEJI,,34.75,134.633333
JP,KAKOGAWA,,34.7,134.833333
JP,BEPPU,,33.316667,131.516667
JP,KOKURA KO,,33.883333,130.883333
JP,ISIKARI WAN,,43.233333,141.366667
JP,TSURUGA KO,,35.65,136.066667
JP,NAOETSU KO,,37.183333,138.25
JP,HABU KO,,34.283333,133.183333
JP,SHINGU,,33.666667,135.983333
JP,TOKACHI,,42.25,143.3
JP,TONDA,,34.033333,131.75
JP,EASTERN PART OF NIIGATA-KO,,38.016667,139.233333
JP,FUNABASHI,,35.666667,139.95
JP,SOMA,,37.833333,140.95
JP,HIROHATA,,34.766667,134.633333
JP,MEGA,,34.783333,134.7
JP,SHIKAMA,,34.766667,134.65
JP,MIKAWA,,34.716667,137.3
JP,FUSHIKI-TOYAMA,,36.766667,137.133333
JP,HIGASHI-HARIMA,,34.7,134.833333
JP,OSAKA,,34.65,135.433333
JP,ISHIKARI BAY NEW PORT,,43.216667,141.283333
HR,UMAG,,45.433333,13.516667
HR,ROVINJ,,45.083333,13.633333
HR,PULA,,44.883333,13.8
HR,SPLIT,,43.5,16.433333
VE,LA GUAIRA,,10.616667,-66.933333
VE,CARUPANO,,10.7,-63.25
VE,GUIRIA,,10.566667,-62.3
GI,EUROPA POINT,,36.133333,-5.35
BH,KHALIFA BIN SALMAN,,26.25,50.75
AL,DURRES,,41.316667,19.45
CA,LOCKEPORT,,43.7,-65.116667
CA,ST JOHN,,45.266667,-66.05
LV,VENTSPILS,,57.4,21.533333
LV,LIEPAJA,,56.516667,21.016667
US,SCITUATE,,42.2,-70.716667
US,HYANNIS PORT,,41.633333,-70.3
US,VINEYARD HAVEN,,41.45,-70.6
US,MONTAUK HARBOR,,41.066667,-71.933333
US,GREENPORT,,41.1,-72.366667
US,NEW HAVEN,,41.233333,-72.916667
US,PORT JEFFERSON,,40.95,-73.083333
US,BRIDGEPORT,,41.166667,-73.183333
US,ROCKPORT,,42.666667,-70.616667
US,CRIEHAVEN,,43.833333,-68.883333
US,MATINICUS,,43.866667,-68.883333
US,ROCKLAND,,44.1,-69.1
GH,TAKORADI,,4.883333,-1.733333
GH,SEKONDI,,4.95,-1.7
GH,TEMA,,5.616667,0.016667
SO,BERBERA,,10.45,45.016667
SO,BOOSAASO,,11.283333,49.183333
MP,TINIAN,,14.966667,145.616667
ES,MALAGA,,36.716667,-4.416667
ES,MOTRIL,,36.75,-3.516667
ES,ADRA,,36.733333,-3.033333
ES,ALMERIA,,36.833333,-2.466667
ES,PUERTO DE CARBONERAS,,37,-1.883333
ES,CARTAGENA,,37.583333,-0.983333
ES,TORREVIEJA,,37.966667,-0.683333
ES,ALICANTE,,38.333333,-0.483333
ES,PUERTO DE GANDIA,,39,-0.15
ES,VALENCIA,,39.45,-0.316667
ES,SAGUNTO,,39.65,-0.216667
ES,EL GRAO,,39.966667,0.016667
ES,TARRAGONA,,41.1,1.233333
ES,BARCELONA,,41.35,2.166667
ES,SAN FELIU DE GUIXOLS,,41.783333,3.033333
ES,PALAMOS,,41.833333,3.116667
ES,PUERTO DE GARRUCHA,,37.183333,-1.816667
ES,VILLANUEVA Y GELTRU,,41.233333,1.733333
BG,BURGAS,,42.483333,27.483333
BG,VARNA,,43.183333,27.966667
IT,PORTO DI BARLETTA,,41.316667,16.283333
IT,MANFREDONIA,,41.616667,15.916667
IT,VASTO,,42.116667,14.716667
IT,ORTONA,,42.35,14.416667
IT,PESCARA,,42.466667,14.216667
IT,ANCONA,,43.616667,13.5
IT,PORTO DI LIDO-VENEZIA,,45.416667,12.433333
IT,TRIESTE,,45.65,13.766667
IT,MUGGIA,,45.6,13.766667
IT,MOLFETTA,,41.216667,16.6
IT,CROTONE,,39.083333,17.133333
IT,TARANTO,,40.466667,17.2
IT,GALLIPOLI,,40.05,17.983333
IT,OTRANTO,,40.15,18.5
IT,MONOPOLI,,40.95,17.3
IT,BARI,,41.133333,16.866667
IT,BRINDISI,,40.65,17.983333
IT,TORRE DEL GRECO,,40.783333,14.366667
IS,DALVIK,,65.983333,-18.516667
ES,PUERTO DE ALCUDIA,,39.833333,3.133333
ES,PALMA DE MALLORCA,,39.566667,2.633333
ES,IBIZA,,38.9,1.45
SY,TARTUS,,34.9,35.866667
SY,BANIYAS,,35.183333,35.95
SY,AL LADHIQIYAH,,35.533333,35.766667
BM,IRELAND ISLAND,,32.316667,-64.833333
SA,DAMMAM,,26.5,50.2
SA,AL JUBAYL,,27.083333,49.666667
SA,RAS AL GHAR,,26.9,49.866667
CN,LIANYUNGANG,,34.733333,119.45
CN,YANTAI,,37.55,121.45
CN,HULUDAO GANG,,40.7,120.983333
CN,YINGKOU,,40.683333,122.233333
CN,LUSHUN,,38.783333,121.25
CN,DALIAN,,38.916667,121.666667
CN,TAICANG,,31.65,121.2
CN,TANGSHAN (JINGTANG),,39.2,119.016667
CN,QINHUANGDAO,,39.933333,119.616667
CA,PORT DE ST PIERRE,,46.783333,-56.166667
US,CALCITE,,45.416667,-83.783333
US,MACKINAC ISLAND,,45.85,-84.616667
US,HARBOR BEACH,,43.85,-82.65
AO,PORTO DO AMBRIZ,,-7.833333,13.1
MO,MACAU,,22.183333,113.566667
NZ,NAPIER,,-39.483333,176.916667
NZ,NEW PLYMOUTH,,-39.066667,174.033333
DK,BANDHOLM,,54.833333,11.5
DK,RODBY HAVN,,54.65,11.35
DK,NYSTED,,54.666667,11.733333
PF,VAITAPE,,-16.5,-151.75
GB,WATCHET HARBOR,,51.183333,-3.333333
GB,ST. MARY'S (SCILLY ISL.),,49.916667,-6.316667
FJ,LAUTOKA HARBOR,,-17.6,177.45
FJ,MALAI,,-16.35,179.366667
CN,YANGPU,,19.733333,109.183333
CN,CHIWAN,,19.966667,110.033333
CN,SHUI DONG,,21.483333,111.083333
CN,ZHUHAI,,22.233333,113.583333
US,MANISTIQUE,,45.95,-86.25
US,PORT INLAND,,45.966667,-85.866667
US,TWO RIVERS,,44.15,-87.566667
US,KEWAUNEE,,44.466667,-87.5
US,PETOSKEY,,45.366667,-84.966667
US,LELAND,,45.016667,-85.766667
US,MICHIGAN CITY,,41.733333,-86.9
US,GARY,,41.616667,-87.333333
US,BUFFINGTON,,41.633333,-87.416667
US,INDIANA HARBOR,,41.666667,-87.433333
US,CALUMET HARBOR,,41.733333,-87.516667
US,WILMETTE,,42.083333,-87.683333
US,GREAT LAKES,,42.3,-87.833333
US,WAUKEGAN,,42.366667,-87.816667
US,KENOSHA,,42.583333,-87.816667
US,RACINE,,42.733333,-87.783333
US,PORT WASHINGTON,,43.383333,-87.866667
IT,PORTO TORRES,,40.833333,8.4
IT,CARLOFORTE,,39.15,8.316667
IT,PORTO VESME,,39.2,8.4
IT,ARBATAX,,39.933333,9.7
IT,CAGLIARI,,39.216667,9.116667
IT,ORISTANO,,39.866667,8.55
FR,PONTRIEUX,,48.7,-3.15
FR,PORT DE ROSCOFF-BLOSCON,,48.733333,-3.983333
LB,TARABULUS,,34.45,35.833333
LB,BAYRUT,,33.9,35.5
NZ,NELSON,,-41.266667,173.266667
NZ,PORT LYTTELTON,,-43.6,172.716667
NZ,TIMARU,,-44.4,171.25
NZ,BLUFF HARBOR,,-46.6,168.333333
DK,FAKSE LADEPLADS HAVN,,55.216667,12.166667
DK,KOGE,,55.45,12.2
DK,KOBENHAVN,,55.7,12.616667
DK,TUBORG,,55.716667,12.583333
DK,HELSINGOR,,56.033333,12.616667
DK,FREDERIKSVAERK,,55.966667,12.016667
DK,FREDERIKSSUND,,55.833333,12.05
DK,KYNDBYVAERKETS HAVN,,55.816667,11.883333
DK,HOLBAEK,,55.716667,11.716667
DK,KALUNDBORG,,55.683333,11.1
DK,KORSOR,,55.333333,11.133333
DK,SKAELSKOR,,55.25,11.3
DK,NYKOBING (MOR),,56.766667,11.866667
DK,HUNDESTED,,55.966667,11.85
GU,APRA HARBOR,,13.45,144.616667
IN,KARWAR,,14.816667,74.116667
IN,QUILON (KOLLAM),,8.883333,76.583333
IN,HAZIRA,,21.083333,72.633333
IN,NEW MANGALORE,,12.916667,74.816667
IN,PORBANDAR,,21.633333,69.6
SA,KING FAHD PORT,,23.95,38.216667
SA,YANBU,,24.083333,38.05
SA,JIDDAH,,21.483333,39.183333
SA,JIZAN,,16.9,42.483333
SA,RABIGH,,22.733333,38.983333
SV,ACAJUTLA,,13.583333,-89.833333
SE,VISBY,,57.633333,18.283333
SE,KLINTEHAMN,,57.383333,18.2
PT,FUNCHAL,,32.633333,-16.916667
ID,JAKARTA,,-6.1,106.883333
ID,CIREBON,,-6.716667,108.566667
ID,SURABAYA,,-7.2,112.733333
PE,BAHIA DE MATARANI,,-17,-72.116667
PE,BAHIA SAN NICOLAS,,-15.25,-75.233333
PE,PUERTO DEL CALLAO,,-12.05,-77.15
PE,SALAVERRY,,-8.233333,-78.983333
GR,MESOLONGION,,38.366667,21.416667
GR,PATRAI,,38.25,21.733333
GR,KATAKOLON,,37.65,21.316667
GR,KALAMATA,,37.016667,22.116667
US,HILO,,19.733333,-155.066667
US,KAWAIHAE,,20.033333,-155.833333
US,KAHULUI,,20.9,-156.466667
US,LAHAINA,,20.866667,-156.666667
US,KAUMALAPAU HARBOR,,20.783333,-157
US,HONOLULU,,21.3,-157.866667
US,PORT ALLEN,,21.9,-159.583333
US,NAWILIWILI BAY,,21.95,-159.35
US,AHUKINI LANDING,,22,-159.333333
US,BARBER'S POINT,,21.316667,-158.116667
GE,POTI,,42.15,41.583333
GE,BATUMI,,41.65,41.65
CA,GRAND BANK,,47.1,-55.75
FI,TOLKKINEN,,60.033333,25.583333
FI,RAHJA,,64.2,23.733333
FI,HELSINKI,,60.166667,24.966667
FI,KOTKA,,60.466667,26.966667
FI,RAAHE,,64.683333,24.416667
FI,MANTYLUOTO,,61.6,21.483333
FI,RAUMA,,61.133333,21.5
FI,UUSIKAUPUNKI,,60.8,21.4
FI,HANKO,,59.816667,22.95
CL,PUERTO SAN ANTONIO,,-33.583333,-71.616667
CL,BAHIA DE VALPARAISO,,-33.033333,-71.616667
CL,ANTOFAGASTA,,-23.65,-70.416667
CL,IQUIQUE,,-20.2,-70.166667
MG,TOAMASINA,,-18.166667,49.416667
MG,ANTISRANANA,,-12.266667,49.283333
GB,SCRABSTER HARBOR,,58.616667,-3.55
SN,DAKAR,,14.683333,-17.433333
ES,SANTA CRUZ DE LA PALMA,,28.683333,-17.75
ES,SANTA CRUZ DE TENERIFE,,28.466667,-16.233333
ES,LAS PALMAS,,28.15,-15.416667
ES,PUERTO DEL ROSARIO,,28.5,-13.85
ES,ARRECIFE,,28.95,-13.533333
AR,PUERTO BELGRANO,,-38.883333,-62.1
AR,MAR DEL PLATA,,-38.033333,-57.533333
AR,BUENOS AIRES,,-34.6,-58.366667
AR,QUEQUEN,,-38.583333,-58.7
AR,PUERTO ROSALES,,-38.933333,-62.066667
AR,COMODORO RIVADAVIA,,-45.866667,-67.466667
RU,BALTIYSK,,54.633333,19.9
RU,TAGANROG,,47.2,38.95
RU,YEYSK,,46.733333,38.266667
RU,NOVOROSSIYSK,,44.716667,37.783333
RU,TUAPSE,,44.1,39.066667
RU,SOCHI,,43.583333,39.733333
ER,MITSIWA HARBOR,,15.616667,39.466667
CN,XIUYU,,25.233333,118.983333
CA,GOULAIS BAY,,46.733333,-84.5
CA,BATCHAWANA BAY,,46.916667,-84.6
CA,GARGANTUA,,47.566667,-84.966667
CA,MICHIPICOTEN,,47.966667,-84.9
CA,QUEBEC HARBOUR,,47.7,-85.8
CA,HERON BAY,,48.65,-86.316667
ID,BAUBAU,,-5.466667,122.616667
ID,POMALAA,,-4.166667,121.6
ID,KENDARI,,-3.966667,122.583333
ID,MANADO,,1.5,124.833333
ID,KOLONODALE,,-1.983333,121.333333
ID,BITUNG,,1.433333,125.183333
CA,MILLHAVEN,,44.2,-76.733333
CA,PICTON,,44.016667,-77.133333
CA,BELLEVILLE,,44.15,-77.4
CA,TORONTO,,43.616667,-79.383333
CA,HAMILTON,,43.25,-79.85
EE,OSMUSSAAR,,59.3,23.366667
XU,JOHNSTON ATOLL,,16.75,-169.516667
JP,HIRARA KO,,24.8,125.283333
CA,ST GEORGE'S,,48.45,-58.45
CA,CORNER BROOK,,48.95,-57.95
QW,WAKE ISLAND,,19.283333,166.616667
CA,TUKTOYAKTUK,,69.45,-133
CA,POLICE POINT,,70.183333,-124.75
CA,PAULATUK,,69.35,-124.083333
CA,PEARCE POINT,,69.816667,-122.75
CA,TYSOE POINT,,69.6,-120.75
CA,SACHS HARBOR,,71.966667,-125.25
CA,BERNARD HARBOR,,68.783333,-114.766667
CA,LADY FRANKLIN POINT,,68.483333,-113.266667
CA,CAMBRIDGE BAY,,69.116667,-105.066667
CA,RESOLUTE BAY,,74.683333,-95.9
NI,EL BLUFF,,12,-83.7
MZ,MOCAMBIQUE,,-15.033333,40.733333
MZ,NACALA,,-14.533333,40.666667
MZ,BEIRA,,-19.833333,34.833333
MZ,IBO,,-12.333333,40.616667
YE,ADEN,,12.783333,44.95
YE,AL MUKHA,,13.316667,43.25
GB,MOSTYN,,53.316667,-3.266667
GB,UIG,,57.583333,-6.35
GB,LOCHMADDY,,57.6,-7.166667
GB,CASTLE BAY,,56.95,-7.483333
GB,LOCHBOISDALE,,57.15,-7.3
GB,STORNOWAY HARBOR,,58.183333,-6.366667
GB,TARBERT,,57.9,-6.816667
GB,MALLAIG,,57,-5.816667
GB,TOBERMORY,,56.616667,-6.066667
GB,CRAIGNURE,,56.466667,-5.7
GB,CORPACH,,56.85,-5.116667
GB,OBAN,,56.416667,-5.466667
GB,CAMPBELTOWN,,55.433333,-5.6
GB,ARDRISHAIG,,56.016667,-5.45
GB,GREENOCK,,55.95,-4.75
GB,LARGS,,55.8,-4.866667
GB,MILLPORT,,55.75,-4.916667
GB,ORNSAY,,57.15,-5.8
GB,PLOCKTON,,57.333333,-5.65
GB,KYLEAKIN,,57.266667,-5.733333
GB,BROADFORD BAY,,57.25,-5.883333
GB,PORTREE HARBOR,,57.416667,-6.2
GB,KILKEEL,,54.05,-5.983333
KP,WONSAN,,39.166667,127.45
KP,CH'ONGJIN,,41.766667,129.816667
KP,SENBONG,,42.333333,130.4
TO,NUKU ALOFA,,-21.133333,-175.2
TO,PANGAI,,-19.8,-174.35
TO,NEIAFU,,-18.65,-173.983333
ID,TAREMPAH,,3.216667,106.216667
ID,WIDURI MARINE TERMINAL,,-4.666667,106.65
GR,PORTHMOS EVRIPOU,,38.466667,23.583333
GR,LARIMNA,,38.566667,23.283333
GR,STILIS,,38.916667,22.616667
GR,TSINGELI,,39.166667,22.85
GR,MILIANA,,39.166667,23.216667
GR,THESSALONIKI,,40.633333,22.933333
GR,YERAKINI,,40.266667,23.466667
GR,STRATONI,,40.516667,23.833333
GR,LAGOS,,41,25.133333
GR,DHIAVLOS STENO,,38.45,23.6
GR,ORMOS MIKRO VATHI,,38.433333,23.6
GR,CHALKIS,,38.466667,23.6
GR,KYMASSI,,38.833333,23.466667
GR,ACHLADI,,38.9,22.816667
GR,ASTAKOS,,38.483333,21.1
IR,BUSHEHR,,28.983333,50.833333
IR,CHAH BAHAR,,25.266667,60.616667
IR,JASK,,25.633333,57.766667
IR,BANDAR TAHERI OFFSHORE TERMINAL,,27.65,52.35
GL,QUTDLEQ,,61.516667,-42.216667
GL,KUSANARTOQ,,61.766667,-42.216667
PL,POLICE,,53.566667,14.566667
BR,ITAQUI,,-2.566667,-44.366667
GL,PAAMUIT (FREDERIKSHAB),,62,-49.666667
GL,KANGERLUARSORUSEQ,,63.7,-51.55
GL,ATTU,,67.95,-53.733333
GL,ILLULISSAT (JAKOBSHAVN),,69.216667,-51.1
GL,QASIGIANNGUIT-CHRISTIANSHAB,,68.816667,-51.183333
GL,PITUFFIK (THULE AIR BASE),,76.533333,-68.866667
GL,NANORTALIK HAVN,,60.116667,-45.2
GL,QAQURTOQ,,60.716667,-46.05
GL,NARSAQ,,60.916667,-46.05
GL,NARSARSSUAQ,,61.15,-45.433333
GL,GRONNEDAL (KANGILINNGUIT),,61.233333,-48.1
GL,NUUK,,64.183333,-51.75
GL,MANIITSOQ,,65.416667,-52.916667
GL,KANGAMIUT,,65.816667,-53.3
GL,SISIMIUT,,66.916667,-53.7
GL,KANGERLUSUAQ,,66.966667,-50.95
GL,AASIAAT,,68.7,-52.866667
GL,QEQERTARSUAQ,,69.233333,-53.533333
GL,UUMMANNAQ HARBOR,,70.683333,-52.15
GL,KAJALLEQ UPERNAVIK,,72.15,-55.533333
GL,UPERNAVIK,,72.766667,-56.15
UY,LA PALOMA,,-34.65,-54.15
ST,SANTO ANTONIO,,1.65,7.45
SL,FREETOWN,,8.5,-13.233333
SD,AL KHAIR OIL TERMINAL,,19.583333,37.25
SD,SAWAKIN HARBOR,,19.133333,37.35
MV,MALE,,4.166667,73.5
AU,THEVENARD,,-32.166667,133.65
AU,ALBANY,,-35.033333,117.883333
AU,BROOME,,-17.966667,122.233333
AU,DARWIN,,-12.466667,130.85
AU,WEIPA,,-12.666667,141.866667
AU,SYDNEY,,-33.866667,151.2
AU,BOTANY BAY,,-34,151.233333
AU,JERVIS BAY,,-35.116667,150.8
AU,BATEMANS BAY,,-35.7,150.166667
AU,WELSHPOOL,,-38.7,146.466667
AU,WESTERN PORT,,-38.35,145.233333
AU,MELBOURNE,,-37.833333,144.966667
AU,GEELONG,,-38.15,144.366667
AU,THURSDAY ISLAND,,-10.583333,142.216667
AU,MOURILYAN HARBOUR,,-17.6,146.133333
NA,WALVIS BAY,,-22.95,14.5
CV,PORTO GRANDE,,16.883333,-25
CU,CABANAS,,23,-82.966667
CU,NUEVITAS BAY,,21.55,-77.266667
CU,ANTILLA,,20.833333,-75.733333
CU,FELTON,,20.733333,-75.6
CU,NICARO,,20.716667,-75.55
CU,MATANZAS,,23.05,-81.55
CU,PUERTO PADRE,,21.283333,-76.533333
IN,PORT BLAIR,,11.683333,92.75
US,SODUS BAY,,43.266667,-76.983333
US,SACKETS HARBOR,,43.95,-76.116667
US,CHAUMONT,,44.066667,-76.133333
IE,WESTPORT,,53.8,-9.533333
IE,FENIT,,52.266667,-9.866667
IE,BANTRY,,51.683333,-9.45
IE,GREENORE,,54.033333,-6.133333
IE,RATHMULLAN,,55.1,-7.533333
IE,KILLYBEGS,,54.633333,-8.45
IE,CASTLETOWN BEARHAVEN,,51.65,-9.916667
IE,VALENTIA,,51.933333,-10.3
TN,MAHDIA,,35.5,11.066667
ID,TANJUNG ARANG  (BUNYU),,3.466667,117.833333
ID,BONTANG LNG TERMINAL,,0.1,117.483333
ID,TANJUNG SANTAN,,-0.1,117.533333
ID,BALIKPAPAN,,-1.25,116.816667
ID,KOTA BARU,,-3.233333,116.216667
ID,TANAH MERAH,,-1.816667,116.166667
ID,STAGEN,,-3.3,116.15
ID,BENOA,,-8.75,115.216667
ID,ENDE,,-8.833333,121.65
ID,TANJUNG BENETE,,-8.9,116.75
ID,KUPANG,,-10.166667,123.583333
VI,CRUZ BAY,,18.333333,-64.8
SE,BROFJORDEN,,58.383333,11.416667
SE,OSKARSHAMN,,57.266667,16.45
SE,FIGEHOLM,,57.366667,16.5
SE,GREBBESTAD,,58.683333,11.266667
SE,FJALLBACKA,,58.6,11.283333
SE,BOVALLSTRAND,,58.483333,11.333333
SE,HUNNEBOSTRAND,,58.433333,11.3
SE,MARSTRAND,,57.883333,11.583333
SE,LANDSKRONA,,55.866667,12.833333
SE,SOLVESBORG,,56.05,14.583333
PF,PORT RIKITEA,,-23.116667,-134.966667
FR,CANNES,,43.55,7.016667
CA,TOBERMORY,,45.266667,-81.666667
CA,WIARTON,,44.75,-81.133333
CA,PENETANGUISHENE,,44.766667,-79.933333
CA,MIDLAND,,44.75,-79.916667
CA,TIFFIN,,44.75,-79.85
CA,PORT MCNICOLL,,44.75,-79.8
CA,VICTORIA HARBOUR,,44.75,-79.816667
CA,WAUBAUSHENE,,44.766667,-79.716667
CA,DEPOT HARBOUR,,45.316667,-80.1
CA,PARRY SOUND,,45.333333,-80.033333
CA,BYNG INLET,,45.766667,-80.566667
CA,KEY HARBOUR,,45.883333,-80.75
CA,KILLARNEY,,45.966667,-81.516667
CA,MANITOWANING,,45.75,-81.8
CA,SHEGUIANDAH,,45.9,-81.916667
CA,LITTLE CURRENT,,45.983333,-81.933333
CA,HONORA,,45.866667,-82.166667
CA,KAGAWONG,,45.916667,-82.25
CA,GORE BAY,,45.916667,-82.466667
CA,MELDRUM BAY,,45.933333,-83.116667
CA,BLIND RIVER,,46.183333,-82.95
CA,COCKBURN,,45.95,-83.316667
CA,BRUCE MINES,,46.283333,-83.783333
CA,HILTON,,46.25,-83.883333
CA,RICHARDS LANDING,,46.3,-84.033333
MY,KEMAMAN HARBOR,,4.25,103.466667
LK,TRINCOMALEE HARBOR,,8.55,81.216667
IS,HAFNARFJORDUR,,64.066667,-21.95
IS,BILDUDALUR,,65.683333,-23.6
IS,SKERJAFJORDUR,,64.15,-22.016667
IS,THINGEYRI,,65.883333,-23.483333
IS,ISAFJORDUR,,66.066667,-23.116667
IS,STRAUMSVIK,,64.05,-22.05
XR,BARENTSBURG,,78.066667,14.233333
XR,LONGYEARBYEN,,78.2,15.7
XR,NY ALESUND,,78.916667,11.95
ID,PATANI,,0.366667,128.75
VI,CHRISTIANSTED,,17.75,-64.7
TR,DEFTERDAR BURNU,,41.05,29.033333
TR,ISTINYE,,41.116667,29.05
TR,AMBARLI,,40.966667,28.7
TR,BORUSAN FERTILIZER JETTY,,40.416667,29.1
TV,FUNAFUTI ATOLL,,-8.516667,179.133333
RU,PETROPAVLOVSK,,53.05,158.65
RU,NIKOL SKOYE,,55.2,165.983333
RU,PROVIDENIYA,,64.416667,-173.233333
RU,AMBARCHIK,,69.633333,162.316667
RU,TIKSI,,71.633333,128.866667
RU,PEVEK,,69.716667,170.3
RU,PORT DIKSON,,73.5,80.516667
RU,MEZEN,,65.833333,44.183333
RU,SEVERODVINSK,,64.566667,39.783333
RU,BELOMORSK,,64.533333,34.8
RU,RABOCHEOSTROVSK,,64.983333,34.783333
RU,KERET,,66.283333,33.566667
RU,KOVDA,,66.683333,32.866667
RU,BOLSHAYA PIRYU GUBA,,66.666667,34.366667
RU,OSTROVNOY GREMIKHA,,68.05,39.516667
RU,MYS ABRAM,,68.983333,33.033333
RU,BUKHTA NAGAYEVA (MAGADAN),,59.566667,150.716667
RU,SLAVYANKA,,42.866667,131.383333
RU,VITINO,,67.083333,32.316667
YE,NISHTUN,,15.816667,52.2
YE,ASH SHIHR OIL TERMINAL,,14.733333,49.5
DK,ESBJERG,,55.466667,8.45
DK,AUGUSTENBORG,,54.95,9.866667
DK,FREDERICIA,,55.566667,9.766667
DK,VEJLE,,55.716667,9.55
DK,STUDSTRUP,,56.25,10.35
DK,HADSUND,,56.716667,10.116667
DK,MARIAGER,,56.65,9.983333
CU,CASILDA,,21.75,-79.983333
CU,CIENFUEGOS,,22.15,-80.45
CU,SANTIAGO DE CUBA,,20.016667,-75.833333
CU,PUERTO GUANTANAMO,,19.983333,-75.133333
SG,SERANGOON HARBOR,,1.4,103.95
SG,KEPPEL - (EAST SINGAPORE),,1.283333,103.85
SG,JURONG ISLAND,,1.283333,103.733333
US,ERIE,,42.15,-80.1
US,SANDUSKY,,41.45,-82.716667
US,PUT IN BAY,,41.65,-82.816667
GR,SOUDHA,,35.483333,24.183333
GR,SITIA,,35.216667,26.133333
GR,KALI LIMENES,,34.933333,24.833333
GR,AYIOS NIKOLAOS,,35.2,25.716667
TR,KABA BURNU,,40.766667,29.533333
TR,IZMIT,,40.766667,29.916667
TR,ERDEK,,40.383333,27.8
TR,KARABIGA,,40.4,27.316667
TR,AYVALIK,,39.316667,26.7
TR,IZMIR,,38.433333,27.133333
TR,KUSADASI,,37.866667,27.25
TR,BODRUM,,37.033333,27.433333
VU,LUGANVILLE,,-15.516667,167.166667
CA,ALBERTON,,46.8,-64.066667
CA,SUMMERSIDE,,46.4,-63.783333
CA,CHARLOTTETOWN,,46.233333,-63.133333
GA,PORT GENTIL,,-0.7,8.8
EG,EL GHARDAQA,,27.216667,33.85
EG,EL-ADABIYA,,29.866667,32.466667
EG,RAS ABU ZANIMAH,,29.033333,33.116667
EG,EL TUR HARBOR,,28.233333,33.616667
EG,NUWEIBA EL MUZEIMA,,28.966667,34.65
CA,HAVRE ST PIERRE,,50.233333,-63.6
CA,MINGAN,,50.283333,-64.016667
VG,ROAD HARBOR,,18.416667,-64.616667
ID,SUNGAIPAKNING,,1.35,102.166667
ID,BENGKALIS,,1.466667,102.1
ID,PANGKALANSUSU,,4.116667,98.216667
ID,TANJUNG BALAI KARIMUN,,0.983333,103.433333
CO,CARTAGENA,,10.416667,-75.533333
CO,SANTA MARTA,,11.25,-74.216667
CO,EL BOSQUE,,10.4,-75.533333
MX,TOPOLOBAMPO,,25.6,-109.066667
MX,LA PAZ,,24.166667,-110.316667
MX,ACAPULCO,,16.85,-99.933333
TW,PENG-HU KANG,,23.583333,119.533333
AQ,ELLEFSEN HARBOR,,-60.733333,-45.033333
AQ,SCOTIA BAY,,-60.75,-44.716667
AQ,ADMIRALTY BAY,,-62.083333,-58.416667
AQ,PORT FOSTER,,-62.95,-60.633333
AQ,PORT LOCKROY,,-64.816667,-63.5
AQ,MELCHIOR HARBOR,,-64.316667,-63
AQ,ANDERSEN HARBOR,,-64.316667,-62.933333
AQ,MCMURDO STATION,,-77.85,166.65
TH,PATTANI,,6.95,101.3
ME,KOTOR,,42.416667,18.766667
RU,VYBORG,,60.716667,28.75
RU,LOMONOSOV,,59.916667,29.766667
SX,PHILLIPSBURG,,18.016667,-63.05
PA,ALMIRANTE,,9.3,-82.4
BN,KUALA BELAIT,,4.633333,114.2
JM,OCHO RIOS,,18.416667,-77.116667
JM,PORT ANTONIO,,18.183333,-76.45
GB,ARDGLASS,,54.266667,-5.616667
GB,LARNE,,54.85,-5.8
GB,KILROOT,,54.733333,-5.716667
GB,WARREN POINT,,54.1,-6.25
MY,TAWA,,4.25,117.883333
LC,VIEUX FORT,,13.716667,-60.966667
LC,CASTRIES,,14.016667,-61
LC,GRAND CUL DE SAC BAY,,13.983333,-61.016667
LR,GREENVILLE,,4.983333,-9.05
TH,BANG SAPHAN,,11.183333,99.6
TH,KHANOM,,9.2,99.9
OM,KHAWR KHASAB,,26.216667,56.233333
GB,SHEERNESS,,51.45,0.75
GB,ISLE OF GRAIN,,51.433333,0.7
IT,LIPARI,,38.483333,14.966667
UA,CHORNOMORS KE,,45.516667,32.7
UA,YEVPATORIYA,,45.2,33.383333
UA,SEVASTOPOL,,44.616667,33.533333
UA,BALAKLAVA,,44.5,33.6
UA,SUDAK,,44.85,34.983333
UA,HENICHESK,,46.166667,34.816667
UA,KHORLY,,46.083333,33.283333
UA,BELGOROD-DNESTROVSKY,,46.183333,30.366667
UA,PORT OKTYABRSK,,46.833333,31.933333
UA,UST-DUNAISK,,45.466667,29.7
ID,TANJUNGUBAN,,1.066667,104.216667
ID,PULAU SAMBU,,1.166667,103.9
ID,MUNTOK,,-2.066667,105.166667
ID,PANJANG,,-5.466667,105.316667
ID,SIBOLGA,,1.733333,98.766667
ID,BLINYU,,-1.633333,105.783333
IS,VOPNAFJORDHUR,,65.75,-14.833333
IS,SEYDHISFJORDHUR,,65.266667,-14
IS,ESKIFJORDHUR,,65.066667,-14.016667
IS,HORNABJORDUR,,64.25,-15.233333
IS,NESKAUPSTADUR,,65.15,-13.683333
IS,BUDIR,,64.933333,-14.016667
IS,DJUPIVOGUR,,64.666667,-14.283333
PH,HINATUAN,,8.366667,126.333333
PH,MANGAGOY,,8.233333,126.316667
PH,DAVAO,,7.066667,125.616667
PH,GENERAL SANTOS,,6.116667,125.183333
PH,PAGADIAN,,7.833333,123.433333
PH,MARGOSATUBIG,,7.583333,123.166667
PH,SANTA CLARA,,7.783333,122.683333
PH,JIMENEZ,,8.333333,123.866667
PH,CAGAYAN DE ORO,,8.5,124.666667
PH,BUGO,,8.516667,124.75
PH,PORT HOLLAND,,6.55,121.866667
PH,SIASI,,5.55,120.816667
PH,PALOMPON,,11.05,124.383333
PH,LAZI,,9.133333,123.633333
PH,PUERTO PRINCESA,,9.733333,118.733333
PH,SORSOGON,,12.966667,124
PH,NASUGBU,,14.083333,120.616667
PH,MARIVELES,,14.433333,120.483333
PH,MASINLOC,,15.55,119.95
PH,PORT ROMBLON,,12.583333,122.266667
PH,MASBATE,,12.366667,123.616667
PH,GUIUAN,,11.033333,125.716667
PH,TACLOBAN,,11.25,125
PH,BASCO,,20.45,121.966667
PH,CLAVERIA,,18.616667,121.083333
PH,PORT SAN VICENTE,,18.516667,122.133333
PH,VIRAC,,13.583333,124.25
PH,SUBIC BAY,,14.8,120.266667
PH,GINGOOG,,8.833333,125.1
PH,MASAO,,9,125.416667
SC,VICTORIA,,-4.616667,55.45
SB,TULAGHI,,-9.1,160.15
SB,YANDINA,,-9.083333,159.216667
SB,GIZO HARBOR,,-8.1,156.85
SB,RINGGI COVE,,-8.116667,157.1
US,GRAND MARAIS,,47.75,-90.333333
US,WASHINGTON HARBOR,,47.916667,-89.15
US,MUNISING,,46.416667,-86.65
US,L ANSE,,46.766667,-88.466667
US,BARAGA,,46.783333,-88.483333
US,COPPER HARBOR,,47.466667,-87.866667
US,EAGLE HARBOR,,47.466667,-88.166667
US,ASHLAND,,46.6,-90.866667
US,WASHBURN,,46.666667,-90.883333
US,BAYFIELD,,46.8,-90.816667
US,LA POINTE,,46.783333,-90.783333
CR,GOLFITO,,8.633333,-83.166667
CR,PUERTO QUEPOS,,9.433333,-84.166667
CR,PUERTO CALDERA,,9.916667,-84.716667
GP,GUSTAVIA,,17.9,-62.85
WS,APIA,,-13.816667,-171.766667
ID,SAUMLAKI,,-7.983333,131.3
RU,POS'YET,,42.65,130.8
RU,VLADIVOSTOK,,43.116667,131.9
RU,BUKHTA GAYDAMAK,,42.866667,132.683333
RU,NAKHODKA,,42.8,132.883333
RU,SOVETSKAYA GAVAN,,48.966667,140.283333
RU,BUKHTA VANINO,,49.083333,140.283333
RU,DE KASTRI,,51.466667,140.783333
RU,ZARUBINO,,42.633333,131.083333
VC,KINGSTOWN,,13.15,-61.233333
TZ,MIKINDANI,,-10.266667,40.133333
TZ,DAR ES SALAAM,,-6.816667,39.3
TZ,CHAKE CHAKE,,-5.25,39.766667
TZ,TANGA,,-5.083333,39.116667
TZ,ZANZIBAR,,-6.166667,39.183333
GR,MILOS,,36.716667,24.45
GR,GAVRIO,,37.883333,24.733333
GR,ANDROS,,37.833333,24.95
GR,MIKONOS,,37.45,25.333333
PG,QUEEN CAROLA HARBOR,,-5.166667,154.55
AS,PAGO PAGO HARBOR,,-14.283333,-170.666667
DK,SVENDBORG,,55.066667,10.616667
DK,FABORG,,55.1,10.25
MU,PORT MATHURIN,,-19.683333,63.416667
PG,LONGAN ISLAND,,-1.216667,144.3
PG,HAMBURG HARBOR,,-1.633333,149.966667
PG,KIMBE,,-5.133333,150.533333
PG,KIETA,,-6.216667,155.633333
PG,KAVIENG HARBOR,,-2.583333,150.8
PG,RABAUL,,-4.2,152.183333
PG,BIALLA,,-5.3,150.983333
CA,GASPE,,48.833333,-64.483333
GB,BURGHEAD,,57.7,-3.5
US,MASSACRE BAY,,52.833333,173.233333
US,CANNERY BAY,,53.7,-166.75
US,DUTCH HARBOR,,53.9,-166.533333
US,UNALASKA,,53.866667,-166.533333
US,PALISADES POINT,,52.233333,-174.166667
US,CONSTANTINE HARBOR,,51.4,179.3
US,KISKA,,51.966667,177.55
US,ALCAN HARBOR,,52.733333,174.066667
US,SKOOT COVE,,52.716667,174.066667
US,AKUTAN HARBOR,,54.133333,-165.8
GT,SANTO THOMAS DE CASTILLA,,15.7,-88.616667
US,POINT SAN PABLO,,37.966667,-122.433333
US,SAUSALITO,,37.85,-122.483333
US,PINOLE POINT,,38.016667,-122.366667
US,OLEUM,,38.05,-122.266667
US,MARE ISLAND,,38.1,-122.266667
US,SOUTH VALLEJO,,38.083333,-122.25
US,CROCKETT,,38.05,-122.216667
US,PORT COSTA,,38.05,-122.183333
US,BENICIA,,38.05,-122.15
US,MARTINEZ,,38.033333,-122.133333
US,BODEGA BAY,,38.333333,-123.05
US,FORT BRAGG,,39.45,-123.816667
US,FIELDS LANDING,,40.716667,-124.216667
US,EUREKA,,40.8,-124.183333
US,SAMOA,,40.816667,-124.183333
US,PORT ORFORD,,42.733333,-124.5
US,EMPIRE,,43.4,-124.283333
US,NORTH BEND,,43.4,-124.216667
US,COOS BAY,,43.366667,-124.216667
US,WALDPORT,,44.433333,-124.066667
US,DEPOE BAY,,44.8,-124.066667
US,SAN DIEGO,,32.716667,-117.183333
US,WILSON COVE,,33,-118.55
US,ISTHMUS COVE,,33.45,-118.5
US,AVALON,,33.35,-118.316667
US,NEWPORT BEACH,,33.616667,-117.9
US,CARPINTERIA,,34.383333,-119.516667
US,PORT SAN LUIS,,35.166667,-120.75
US,MONTEREY,,36.616667,-121.883333
US,MOSS LANDING,,36.8,-121.783333
US,SANTA CRUZ,,36.966667,-122.016667
US,ROCHE  HARBOR,,48.616667,-123.166667
US,ORCAS,,48.6,-122.933333
US,ANACORTES,,48.516667,-122.616667
US,BELLINGHAM,,48.75,-122.5
US,CHERRY POINT,,48.866667,-122.75
US,SEMIAHMOO,,48.983333,-122.766667
US,BLAINE,,49,-122.75
US,FRIDAY HARBOR,,48.533333,-123.016667
US,NAHCOTTA,,46.5,-124.033333
US,SEKIU,,48.266667,-124.3
US,PORT ANGELES,,48.116667,-123.433333
US,PORT TOWNSEND,,48.116667,-122.75
US,GLEN COVE,,48.083333,-122.783333
US,HOODSPORT,,47.416667,-123.133333
US,PORT GAMBLE,,47.85,-122.583333
US,POULSBO,,47.733333,-122.65
US,KEYPORT,,47.7,-122.616667
US,WINSLOW,,47.616667,-122.516667
US,CREOSOTE,,47.616667,-122.5
US,FORT WARD,,47.583333,-122.516667
US,EAST BREMERTON,,47.566667,-122.616667
US,SILVERDALE,,47.65,-122.7
US,BREMERTON,,47.566667,-122.65
US,PORT ORCHARD,,47.533333,-122.633333
US,QUARTERMASTER HARBOR,,47.383333,-122.466667
US,SHELTON,,47.216667,-123.1
US,OLYMPIA,,47.05,-122.9
US,NISQUALLY HEAD,,47.116667,-122.75
US,TACOMA,,47.283333,-122.416667
US,SEATTLE,,47.6,-122.333333
US,POINT WELLS,,47.783333,-122.4
US,EDWARDS POINT,,47.8,-122.4
US,MUKILTEO,,47.95,-122.3
US,EVERETT,,48,-122.216667
US,COUPEVILLE,,48.233333,-122.683333
US,RICHARDSON,,48.45,-122.9
US,SAN FRANCISCO,,37.816667,-122.416667
US,YERBABUENA ISLAND,,37.816667,-122.366667
US,ALAMEDA,,37.783333,-122.266667
US,OAKLAND,,37.816667,-122.333333
US,BERKELEY,,37.866667,-122.3
US,POINT RICHMOND,,37.916667,-122.366667
FR,BONIFACIO,,41.383333,9.166667
FR,CALVI,,42.566667,8.75
FR,PORTO VECCHIO,,41.583333,9.283333
MT,VALLETTA HARBORS,,35.9,14.516667
MT,MARSAXLOKK,,35.816667,14.55
CA,FORTUNE HARBOR,,49.533333,-55.233333
CA,SPRINGDALE,,49.5,-56.066667
CA,CONCHE,,50.883333,-55.9
CA,RODDICKTON,,50.866667,-56.133333
CA,WESTPORT COVE,,49.783333,-56.616667
CA,SEAL COVE,,49.933333,-56.383333
CA,LITTLE BAY,,49.616667,-56
CA,TWILLINGATE HARBOR,,49.666667,-54.766667
CA,CATALINA HARBOR,,48.5,-53.083333
CA,PORT UNION,,48.5,-53.083333
CA,CLARENVILLE,,48.15,-53.95
CA,CARBONEAR BAY,,47.733333,-53.216667
CA,HARBOR GRACE,,47.683333,-53.216667
CA,ST JOHN'S,,47.566667,-52.7
MA,ESSAOUIRA,,31.5,-9.783333
AE,KHAWR FAKKAN,,25.35,56.383333
AE,UMM AL QAYWAYN,,25.583333,55.583333
AE,AL JAZEERA PORT,,25.716667,55.783333
NU,ALOFI,,-19.033333,-169.933333
GB,PIEROWALL,,59.3,-2.983333
GB,KETTLETOFT,,59.233333,-2.6
GB,WHITEHALL,,59.133333,-2.6
GB,SOUTH NESS,,58.8,-3.2
GB,ST MARGARETS HOPE,,58.833333,-2.95
GB,LYNESS,,58.833333,-3.2
GB,SCAPA BAY,,58.95,-2.983333
KH,PHSAR REAM,,10.5,103.6
US,SAN JUAN CANNERY,,60.05,-148.066667
US,LATOUCHE,,60.05,-148.066667
US,SEWARD,,60.1,-149.433333
US,PORT GRAHAM,,59.35,-151.816667
US,SELDOVIA,,59.433333,-151.733333
US,HOMER,,59.6,-151.416667
US,COAL POINT,,59.6,-151.416667
US,NINILCHIK,,60.05,-151.683333
US,KENAI,,60.55,-151.266667
US,NIKISKI,,60.683333,-151.4
US,ANCHORAGE,,61.216667,-149.9
US,DRIFT RIVER,,60.55,-152.133333
US,SNUG HARBOR,,60.1,-152.583333
US,OUZINKIE,,57.916667,-152.5
US,KODIAK,,57.783333,-152.4
US,WOMENS BAY,,57.716667,-152.516667
US,PORT HOBRON,,57.166667,-153.166667
US,MCCORD,,57.15,-153.2
US,THREE SAINTS BAY,,57.116667,-153.5
US,TRAP POINT,,57,-154.15
US,LAZY BAY,,56.9,-154.25
US,UYAK,,57.633333,-154
US,LARSEN BAY,,57.533333,-153.983333
US,PORT OBRIEN,,57.733333,-153.316667
US,DRY SPRUCE BAY,,57.933333,-153.033333
US,PORT VITA,,58.066667,-153.066667
US,BEAR ISLAND,,58.45,-152.683333
US,HOGG ISLAND,,58.466667,-152.683333
US,PORT WILLIAM,,58.483333,-152.583333
US,CHIGNIK,,56.3,-158.4
US,IVANOF BAY,,55.8,-159.466667
US,SAND POINT,,55.333333,-160.533333
US,BARALOF BAY,,55.233333,-160.533333
US,KING COVE,,55.05,-162.316667
US,COLD BAY,,55.2,-162.7
US,WHITTIER,,60.833333,-148.666667
US,CRAB BAY,,60.066667,-148
US,PORT ASHTON,,60.066667,-148.05
US,KETCHIKAN,,55.333333,-131.65
US,WARD COVE,,55.4,-131.733333
US,LORING,,55.6,-131.633333
US,YES BAY,,55.916667,-131.8
US,UNION BAY,,55.766667,-132.216667
US,BURNETT INLET,,56.066667,-132.466667
US,WRANGELL,,56.466667,-132.383333
US,KASAAN,,55.533333,-132.4
US,ROSE INLET,,54.95,-132.966667
US,HYDABURG,,55.2,-132.833333
US,CRAIG,,55.466667,-133.15
US,KLAWOCK,,55.55,-133.1
US,STEAMBOAT BAY,,55.533333,-133.633333
US,FISHERMANS HARBOR,,55.966667,-133.8
US,PETERSBURG,,56.816667,-132.95
US,WASHINGTON BAY,,56.733333,-134.35
US,BAY OF PILLARS,,56.6,-134.233333
US,BIG PORT WALTER,,56.383333,-134.733333
US,LITTLE PORT WALTER,,56.383333,-134.633333
US,PORT ARMSTRONG,,56.3,-134.666667
US,PORT CONCLUSION,,56.25,-134.683333
US,PORT ALEXANDER,,56.25,-134.65
US,SITKA,,57.05,-135.333333
US,KIMSHAN COVE,,57.683333,-136.116667
US,PELICAN,,57.966667,-136.233333
US,PORT CHILKOOT,,59.233333,-135.433333
US,ORCA,,60.583333,-145.716667
US,ELFIN COVE,,58.2,-136.35
US,HOONAH,,58.116667,-135.45
US,TENAKEE SPRINGS,,57.783333,-135.2
US,CHATHAM,,57.516667,-134.933333
US,TODD,,57.466667,-135.05
US,HOOD BAY,,57.4,-134.5
US,HAWK INLET,,58.116667,-134.75
US,FUNTER,,58.25,-134.9
US,DUPONT,,58.233333,-134.266667
US,JUNEAU,,58.3,-134.416667
US,HAINES,,59.233333,-135.433333
US,TANANI POINT,,59.283333,-135.45
US,SKAGWAY,,59.45,-135.333333
US,LETNIKOF COVE,,59.183333,-135.4
US,EXCURSION INLET,,58.416667,-135.45
US,YAKUTAT,,59.55,-139.733333
US,CORDOVA,,60.55,-145.766667
US,GEORGE INLET,,55.383333,-131.466667
US,VALDEZ,,61.116667,-146.25
US,HYDER,,55.916667,-130
NO,MOSS,,59.45,10.666667
NO,TOFTE,,59.55,10.566667
NO,KAMBO,,59.466667,10.683333
NO,HAUGESUND,,59.416667,5.266667
NO,ESPEVAER,,59.583333,5.15
NO,SAUDA,,59.65,6.35
NO,FARSUND,,58.083333,6.816667
NO,KRISTIANSAND,,58.15,8
NO,RISOR,,58.716667,9.233333
NO,BREVIK,,59.066667,9.7
NO,HORTEN,,59.416667,10.5
NO,SVELVIK,,59.616667,10.4
NO,STORSTEILENE,,59.816667,10.6
NO,OSLO,,59.916667,10.75
NO,MOSTERHAMN,,59.7,5.4
NO,SAGVAG,,59.766667,5.383333
NO,LEIRVIK,,59.783333,5.5
NO,TJOTTA,,65.833333,12.433333
NO,BRONNOYSUND,,65.466667,12.2
NO,BERG,,65.366667,12.2
NO,RORVIK,,64.866667,11.25
NO,SALSBRUKET,,64.8,11.866667
NO,NAMSOS,,64.466667,11.5
NO,STEINKJER,,64.016667,11.5
NO,DJUPVIKEN,,63.783333,11.45
NO,LANGSTEIN,,63.533333,10.9
NO,MURUVIK,,63.433333,10.85
NO,HOMMELVIK,,63.416667,10.8
NO,TRONDHEIM,,63.433333,10.4
NO,THAMSHAMM,,63.316667,9.883333
NO,KRISTIANSUND,,63.116667,7.733333
NO,HAROYSUND,,62.9,6.966667
NO,MOLDE,,62.733333,7.166667
NO,ANDALSNES,,62.566667,7.683333
NO,MOLDTUSTRANDA,,62.3,5.65
NO,ORSTAV,,62.2,6.133333
NO,MALOY,,61.933333,5.116667
NO,BERGEN,,60.4,5.316667
NO,BRATTHOLMEN,,60.35,5.166667
NO,TRANNESET,,60.416667,5.016667
NO,STRANDVIK,,60.166667,5.666667
NO,MELING,,59.783333,5.116667
NO,HEMNESBERGET,,66.233333,13.616667
NO,HAMMERFEST,,70.666667,23.666667
NO,SORVAER,,70.633333,21.983333
NO,BREDVIK,,70.583333,22.133333
NO,OKSFJORD,,70.233333,22.35
NO,ALTA,,69.966667,23.25
NO,TALVIK,,70.05,22.966667
NO,GIBOSTAD,,69.35,18.083333
NO,FINNSNES,,69.233333,17.966667
NO,MEDBY,,68.916667,17.733333
NO,SJOVEGAN,,68.883333,17.833333
NO,HARSTAD,,68.8,16.55
NO,SORTLAND,,68.7,15.416667
NO,REINE,,67.933333,13.1
NO,BALLSTAD,,68.066667,13.7
NO,STAMSUND,,68.116667,13.85
NO,SVOLVAER,,68.233333,14.583333
NO,SKROVA HAVN,,68.166667,14.666667
NO,BRETTESNES,,68.233333,14.85
NO,LODINGEN,,68.416667,16
NO,LILANDSGRUNNEN,,68.483333,16.883333
NO,LITLE BALLANGEN,,68.333333,16.85
NO,DRAG,,68.05,16.083333
NO,KORSNES,,68.25,16.066667
NO,TRANOY,,68.183333,15.666667
NO,KJERRINGOY,,67.516667,14.766667
NO,LAKSELV,,67.366667,15.6
NO,FAUSKE,,67.25,15.366667
NO,ROGNAN,,67.1,15.416667
NO,ORNES,,66.866667,13.716667
NO,GLOMFJORD,,66.816667,13.983333
NO,SANDNESSJOEN,,66.016667,12.633333
NO,KVALSUND,,70.5,23.983333
NO,KIRKENES,,69.733333,30.05
NO,BATSFJORDEN,,70.633333,29.733333
NO,VARDO,,70.366667,31.116667
NO,KJOLLEFJORDEN,,70.95,27.333333
NO,HONNINGSVAG,,70.983333,26
CN,HAIKOU,,20.05,110.283333
CN,SHEKOU,,22.466667,113.866667
RU,SHAKOTAN,,43.866667,146.833333
CA,PICTOU,,45.666667,-62.716667
SE,KARLSBORG,,65.8,23.283333
SE,SANDVIK,,65.733333,23.766667
SE,TOREHAMN,,65.9,22.65
SE,KOPMANHOLMEN,,63.166667,18.583333
SE,HUSUM,,63.333333,19.15
SE,RUNDVIK,,63.533333,19.45
SE,NORDMALING,,63.566667,19.483333
SE,SKELLEFTEHAMN,,64.683333,21.233333
SE,KAGEHAMN,,64.833333,21.033333
SE,BRANNFORS,,65.016667,21.383333
SE,PITEA,,65.316667,21.483333
SE,LULEA,,65.583333,22.166667
SE,GAVLE,,60.683333,17.166667
SE,NORRSUNDET,,60.933333,17.166667
SE,VALLVIK,,61.183333,17.166667
SE,IGGESUND,,61.65,17.083333
SE,STOCKA,,61.9,17.35
SE,STOCKVIK,,62.333333,17.383333
SE,SUNDSVALL,,62.383333,17.35
SE,VIVSTAVARV,,62.483333,17.35
SE,SORAKER,,62.5,17.5
SE,HARNOSAND,,62.633333,17.933333
SE,ULVVIK,,62.666667,17.866667
SE,UTANSJO,,62.766667,17.933333
SE,GUSTAVSVIK,,62.833333,17.883333
SE,LUNDE,,62.883333,17.883333
SE,KRAMFORS,,62.933333,17.8
SE,KARSKAR,,60.683333,17.266667
SE,BOLLSTABRUK,,63,17.7
SE,VERKEBACK,,57.733333,16.533333
SE,OXELOSUND,,58.666667,17.116667
SE,NYNASHAMN,,58.9,17.966667
SE,GUSTAVSBERG,,59.316667,18.383333
SE,SANDHAMN,,59.283333,18.916667
SE,GRISSLEHAMN,,60.1,18.816667
SE,HARGSHAMN,,60.183333,18.45
SE,SKUTSKAR,,60.65,17.4
SE,SANDARNE,,61.266667,17.183333
SE,DOMSJO,,63.266667,18.733333
SE,OBBOLA,,63.7,20.333333
CA,ARGENTIA,,47.3,-53.983333
CA,TREPASSEY HARBOR,,46.733333,-53.4
GR,VRAKHONISIS KALLONIS,,39.083333,26.083333
GR,SAMOS,,37.75,26.966667
LY,KHOMS,,32.666667,14.25
LY,ABU KHAMMASH,,33.066667,11.816667
GD,ST GEORGE'S,,12.05,-61.75
SI,KOPER,,45.55,13.733333
FO,TVOROYRI,,61.55,-6.8
FO,VESTMANNA,,62.15,-7.166667
FO,SORVAGUR,,62.083333,-7.25
FO,FUGLAFJORDUR,,62.25,-6.8
FO,KLAKSVIK,,62.233333,-6.583333
FO,RUNAVIK,,62.116667,-6.716667
FO,VAGUR,,61.483333,-6.8
GB,FALMOUTH HARBOUR,,50.15,-5.066667
GB,PLYMOUTH,,50.366667,-4.15
GB,WEYMOUTH HARBOUR,,50.616667,-2.45
PG,ALOTOA,,-10.316667,150.45
PG,SAMARAI,,-10.616667,150.666667
PG,SULOGA HARBOR,,-9.216667,152.766667
PG,DISCOVERY BAY,,-10.416667,150.416667
PG,ORO BAY,,-8.883333,148.483333
CK,AVATIU,,-21.2,-159.783333
GB,NEATH,,51.633333,-3.833333
ES,SAN CIPRIAN,,43.7,-7.433333
ES,LA CORUNA,,43.366667,-8.4
ES,VILLAGARCIA DE AROSA,,42.6,-8.766667
TR,AKSAZ LIMANI,,36.833333,28.383333
DE,WISMAR,,53.9,11.466667
BN,MUARA HARBOR,,5.033333,115.066667
KR,MASAN,,35.183333,128.566667
KR,CHINAE,,35.133333,128.65
KR,GWANGYANG HANG,,34.85,127.8
BR,IMBITUBA,,-28.233333,-48.666667
BR,GUAIBA ISLAND TERMINAL,,-23.016667,-44.033333
BR,SANTA CLARA,,-20.883333,-51.366667
BR,PORTO DO FORNO,,-22.966667,-42.016667
BR,ANGRA DOS REIS,,-23.016667,-44.316667
BR,SANTOS,,-23.95,-46.3
BR,RIO DE JANEIRO,,-22.9,-43.166667
BR,NITEROI,,-22.883333,-43.116667
BR,PARANAGUA,,-25.5,-48.516667
MY,PORT KLANG,,3,101.4
MY,SAPANGAR BAY,,6.083333,116.116667
MY,PELABUHAN BASS,,6.316667,99.833333
MY,PULAU PINANG,,5.416667,100.35
QA,DOHA,,25.283333,51.533333
HN,PUERTO ESTE,,16.083333,-86.9
HN,COXEN HOLE,,16.316667,-86.55
DZ,COLLO,,37,6.583333
CA,BAMBERTON,,48.55,-123.516667
CA,ESQUIMALT HARBOR,,48.433333,-123.433333
CA,PORT SAN JUAN,,48.55,-124.433333
CA,UCLUELET,,48.95,-125.55
CA,CLAYOQUOT,,49.15,-125.916667
CA,AHOUSAT,,49.283333,-126.066667
CA,TAHSIS,,49.916667,-126.666667
CA,BERGH COVE,,50.533333,-127.616667
CA,PORT ALICE,,50.383333,-127.45
CA,COAL HARBOR,,50.6,-127.583333
CA,PORT HARDY,,50.716667,-127.483333
CA,SOINTULA,,50.633333,-127.016667
CA,ALERT BAY,,50.583333,-126.933333
CA,PORT MCNEILL,,50.583333,-127.083333
CA,BELLA COOLA,,52.366667,-126.8
CA,BELLA BELLA,,52.166667,-128.15
CA,KLEMTU,,52.6,-128.516667
CA,BUTEDALE,,53.166667,-128.683333
CA,KITIMAT,,54,-128.683333
CA,PORPOISE HARBOR,,54.216667,-130.283333
CA,PRINCE RUPERT,,54.316667,-130.333333
CA,PORT SIMPSON,,54.566667,-130.433333
CA,STEWART,,55.933333,-130
CA,MASSET HARBOR,,54.016667,-132.15
CA,PORT CLEMENTS,,53.683333,-132.183333
CA,QUEEN CHARLOTTE,,53.25,-132.083333
CA,ALLIFORD BAY,,53.216667,-131.983333
CA,LYALL HARBOR,,48.8,-123.2
CA,HOPE BAY,,48.8,-123.283333
CA,SIDNEY,,48.65,-123.383333
CA,VANCOUVER,,49.283333,-123.116667
CA,PORT MOODY,,49.283333,-122.883333
CA,PORT MELLON,,49.516667,-123.483333
CA,DUNCAN BAY,,50.066667,-125.283333
CA,CAMPBELL RIVER,,50.016667,-124.233333
CA,COMOX HARBOR,,49.666667,-124.916667
CA,NANOOSE HARBOR,,49.266667,-124.15
CA,NANAIMO,,49.166667,-123.933333
CA,HARMAC,,49.133333,-123.85
CA,CHEMAINUS,,48.933333,-123.716667
CA,CROFTON,,48.866667,-123.633333
CA,COWICHAN BAY,,48.75,-123.616667
CA,GANGES,,48.85,-123.483333
ID,FAKFAK,,-2.933333,132.283333
ID,AMAMAPARE,,-4.816667,136.966667
ID,SAILOLOF,,-1.25,130.75
ID,SERUI,,-1.9,136.25
ID,MANOKWARI ROAD,,-0.866667,134.083333
ID,JAYAPURA,,-2.533333,140.716667
ID,MIEI,,-2.733333,134.5
FK,STANLEY,,-51.7,-57.833333
VN,VINH CAM RANH,,11.883333,109.166667
VN,QUI NHON,,13.766667,109.233333
VN,THANH HOA,,10.816667,106.766667
VN,CAT LAI,,10.75,106.783333
VN,MUI VUNG TAU,,10.316667,107.066667
CA,RONDEAU,,42.266667,-81.9
CA,PELEE I NORTH WHARF,,41.816667,-82.666667
RU,OKHA,,53.55,143
RU,MOSKAL VO,,53.583333,142.5
RU,SHAKHTERSK,,49.166667,142.066667
ID,AMBON,,-3.683333,128.166667
ID,WAHAI,,-2.783333,129.5
PT,ANGRA DO HEROISMO,,38.65,-27.216667
PT,PRAIA DE VITORIA,,38.716667,-27.05
PT,VILA DO PORTO,,36.933333,-25.15
GR,KALIMNOS,,36.95,26.983333
GR,LAKKI,,37.133333,26.85
AU,BEAUTY POINT,,-41.15,146.816667
AU,DOVER,,-43.316667,147.033333
AU,PORT DALRYMPLE,,-41.133333,146.833333
NC,NOUMEA,,-22.283333,166.433333
JP,MURORAN KO,,42.35,140.966667
JP,KAMAISHI KO,,39.266667,141.9
JP,OFUNATO,,39.05,141.733333
JP,KESENNUMA KO,,38.866667,141.6
JP,ISHINOMAKI KO,,38.4,141.316667
JP,SENDAI-SHIOGAMA,,38.316667,141.033333
JP,TATEYAMA KO,,35,139.8
JP,KANDA,,33.783333,131.016667
JP,KAGOSHIMA KO,,31.583333,130.566667
JP,MISUMI KO,,32.6,130.466667
JP,NAGASAKI,,32.716667,129.85
JP,SASEBO,,33.166667,129.716667
JP,KARATSU,,33.483333,129.966667
JP,IZUHARA,,34.2,129.3
JP,WAKAMATSU KO,,33.9,130.816667
JP,HAGI KO,,34.416667,131.4
JP,SAKAI KO,,35.55,133.25
JP,MIYAZU,,35.533333,135.2
JP,MAIZURU KO,,35.516667,135.333333
JP,NANAO KO,,37.05,136.983333
JP,RYOTU KO,,38.083333,138.566667
JP,HANNAN KO,,34.466667,135.35
JP,KOCHI KO,,33.5,133.566667
JP,UWAJIMA KO,,33.216667,132.566667
JP,YAWATAHAMA,,33.45,132.416667
JP,MISHIMA-KAWANOE KO,,34,133.55
JP,URAGA KO,,35.233333,139.716667
JP,SHIMIZU KO,,35.016667,138.5
JP,MATSUSAKA,,34.6,136.566667
JP,TOBA,,34.483333,136.85
JP,OWASE KO,,34.066667,136.216667
JP,TANABE KO,,33.716667,135.366667
JP,AIOI,,34.783333,134.466667
JP,UNO KO,,34.483333,133.95
JP,HIBI KO,,34.45,133.933333
JP,MIZUSHIMA KO,,34.5,133.75
JP,ONOMICHI-ITOZAKI,,34.383333,133.166667
JP,KURE,,34.233333,132.55
JP,KANOKAWA KO,,34.183333,132.433333
JP,KUDAMATSU,,34,131.866667
JP,YOKOSUKA KO,,35.283333,139.666667
JP,SHIMONOSEKI,,33.933333,130.933333
JP,ATSUMI,,34.666667,137.066667
JP,O0KIHAMA,,34.75,134.566667
JP,KASHIWAZAKI,,37.366667,138.55
JP,UCHIURA,,35.516667,135.5
JP,HIKARI,,33.95,131.933333
JP,HIMEKAWA,,37.033333,137.85
JP,HIBIKINADA,,33.933333,130.833333
JP,MITSUKOJIMA,,34.183333,132.516667
JP,NOSHIRO KO,,40.216667,140
JP,SAKAIMINATO,,35.533333,133.233333
JP,TOBATA,,33.916667,130.816667
JP,TOKYO KO,,35.666667,139.75
JP,SAKAIDE KO,,34.333333,133.85
JP,FUKUYAMA,,34.433333,133.433333
HR,DUBROVNIK,,42.666667,18.083333
HR,BRSICA,,45.033333,14.05
HR,BAKAR,,45.3,14.533333
HR,OMISALJ,,45.216667,14.55
HR,SENJ,,44.983333,14.9
HR,ZADAR,,44.116667,15.216667
HR,SIBENIK,,43.733333,15.883333
HR,PLOCE,,43.05,17.433333
HR,ZALIV RASA,,45.05,14.066667
HR,DUGI RAT,,43.45,16.65
HR,KORCULA,,42.933333,17.133333
VE,PUERTO CABELLO,,10.483333,-68
VE,BAHIA DE PERTIGALETE,,10.233333,-64.566667
VE,CATIA LA MAR,,10.6,-67.016667
VE,PUERTO BORBURATA,,10.483333,-67.983333
VE,PUERTO CHICHIRIVICHE,,10.916667,-68.266667
ID,TAHUNA,,3.616667,125.483333
BH,MINA SALMAN,,26.2,50.633333
BH,AL MANAMAH,,26.233333,50.583333
AL,SHENGJIN,,41.816667,19.6
AL,VLORES,,40.466667,19.5
CA,CARAQUET,,47.8,-64.933333
CA,SHIPPEGAN,,47.75,-64.7
CA,SHEDIAC,,46.216667,-64.55
GP,POINTE A PITRE,,16.233333,-61.533333
CA,GOLDSBORO,,45.183333,-61.65
CA,STORMONT,,45.216667,-61.716667
CA,MUSQUODOBOIT HARBOUR,,44.783333,-63.15
CA,HALIFAX,,44.65,-63.583333
CA,SAMBRO,,44.466667,-63.6
CA,LUNENBURG,,44.383333,-64.316667
CA,DIGBY,,44.616667,-65.766667
CA,CANSO,,45.333333,-61
CA,GUYSBOROUGH,,45.4,-61.5
CA,YARMOUTH,,43.833333,-66.116667
CA,LIVERPOOL (BROOKLYN),,44.033333,-64.65
CA,WHITEHAVEN HARBOR,,45.233333,-61.183333
US,MONHEGAN,,43.766667,-69.316667
US,PORT CLYDE,,43.916667,-69.25
US,FRIENDSHIP,,43.966667,-69.333333
US,NEW HARBOR,,43.866667,-69.483333
US,PEMAQUID BEACH,,43.866667,-69.533333
US,SOUTH BRISTOL,,43.866667,-69.55
US,BOOTHBAY HARBOR,,43.866667,-69.583333
US,CUNDY HARBOR,,43.783333,-69.9
US,SOUTH HARPSWELL,,43.733333,-70.016667
US,PORTLAND,,43.666667,-70.25
US,COREA,,44.4,-67.966667
US,EASTPORT,,44.9,-66.983333
US,LUBEC,,44.866667,-66.983333
US,MACHIASPORT,,44.7,-67.4
US,JONESPORT,,44.533333,-67.616667
US,WYMAN,,44.516667,-67.866667
US,ST AUGUSTINE,,29.9,-81.316667
US,CANAVERAL HARBOR,,28.7,-80.616667
US,FORT PIERCE,,27.466667,-80.316667
US,PALM BEACH,,26.766667,-80.05
US,PORT EVERGLADES,,26.1,-80.116667
US,MIAMI,,25.783333,-80.183333
US,OCEAN CITY,,38.333333,-75.083333
US,CAPE CHARLES,,37.266667,-76.016667
US,NEWPORT NEWS,,36.966667,-76.433333
US,EDENTON,,36.05,-76.616667
US,BEAUFORT,,34.716667,-76.666667
US,MOREHEAD CITY,,34.716667,-76.7
US,SWANSBORO,,34.683333,-77.133333
US,WRIGHTSVILLE,,34.216667,-77.816667
US,ELIZABETHPORT,,40.65,-74.183333
US,STAPLETON SI,,40.633333,-74.066667
US,TOMPKINSVILLE SI,,40.633333,-74.066667
US,PORT RICHMOND SI,,40.65,-74.133333
US,MARINERS HARBOR SI,,40.633333,-74.166667
US,SAYREVILLE,,40.466667,-74.366667
US,SOUTH AMBOY,,40.483333,-74.266667
US,LEONARDO,,40.433333,-74.066667
US,BARNEGAT,,39.766667,-74.1
US,ATLANTIC CITY,,39.366667,-74.416667
US,CITY ISLAND,,40.85,-73.783333
US,GLOUCESTER,,42.6,-70.666667
US,BEVERLY,,42.533333,-70.883333
US,SALEM,,42.516667,-70.883333
US,MARBLEHEAD,,42.5,-70.85
US,LYNN,,42.45,-70.95
US,BOSTON,,42.35,-71.05
US,PLYMOUTH,,41.95,-70.666667
US,PROVINCETOWN,,42.05,-70.183333
US,HYANNIS,,41.65,-70.283333
US,FALMOUTH,,41.55,-70.616667
US,NANTUCKET,,41.283333,-70.1
US,EDGARTOWN,,41.383333,-70.5
US,WOODS HOLE,,41.516667,-70.666667
US,NEW BEDFORD,,41.633333,-70.916667
US,NEWPORT,,41.5,-71.333333
US,FALL RIVER,,41.7,-71.166667
US,BRISTOL,,41.666667,-71.266667
US,QUONSET POINT,,41.583333,-71.4
US,DAVISVILLE DEPOT,,41.616667,-71.4
US,NOANK,,41.316667,-71.983333
US,GREENWICH,,41.016667,-73.616667
US,WINTER HARBOR,,44.383333,-68.083333
US,SORRENTO,,44.466667,-68.183333
US,BAR HARBOR,,44.383333,-68.2
US,NORTHEAST HARBOR,,44.3,-68.283333
US,SOUTHWEST HARBOR,,44.283333,-68.316667
US,MOUNT DESERT,,44.366667,-68.333333
US,FRENCHBORO,,44.116667,-68.366667
US,MINTURN,,44.15,-68.45
US,SWANS ISLAND,,44.133333,-68.45
US,BASS HARBOR,,44.233333,-68.35
US,BROOKLIN,,44.266667,-68.583333
US,BUCKS HARBOR,,44.333333,-68.733333
US,STONINGTON,,44.15,-68.666667
US,VINALHAVEN,,44.05,-68.833333
US,NORTH HAVEN,,44.133333,-68.866667
US,CASTINE,,44.383333,-68.733333
US,CAMDEN,,44.216667,-69.066667
US,ROCKPORT,,44.183333,-69.066667
TT,CHAGUARAMAS,,10.683333,-61.65
TT,POINT LISAS INDUSTRIAL PORT,,10.4,-61.5
TT,PORT OF SPAIN,,10.65,-61.516667
GS,PRINCE OLAV HARBOR,,-54.033333,-37.15
GS,STROMNESS HARBOR,,-54.15,-36.7
GS,GRYTVIKEN,,-54.266667,-36.5
DE,BUSUM,,54.133333,8.866667
MY,BAKAPIT,,4.95,118.583333
PF,ATUONA,,-9.816667,-139.033333
PF,BAIE TAIOHAE,,-8.933333,-140.083333
MY,VICTORIA,,5.283333,115.233333
MY,KOTA KINABALU,,5.983333,116.066667
MY,PELABUHAN SANDAKAN,,5.833333,118.116667
MY,LAHAD DATU,,5.016667,118.316667
MP,SAIPAN,,15.2,145.683333
ES,ROSAS,,42.266667,3.183333
ES,AGUILAS,,37.4,-1.566667
ES,HORNILLO,,37.4,-1.55
PK,KARACHI,,24.783333,66.983333
PK,MUHAMAMAD BIN QASIM,,24.766667,67.35
PK,GWADAR,,25.133333,62.3
DO,LAS CALDERAS,,18.216667,-70.516667
DO,SANTA CRUZ DE BARAHONA,,18.2,-71.083333
DO,PUERTO BOTADO,,19.2,-69.45
DO,SANTA BARBARA DE SAMANA,,19.2,-69.333333
IS,SIGLUFJORHURD,,66.15,-18.916667
IS,OLAFSFJORDHUR,,66.083333,-18.633333
IS,AKUREYRI,,65.683333,-18.083333
IS,KOPASKER,,66.283333,-16.45
IS,SKAGASTROND,,65.833333,-20.316667
IS,SAUDARKROKUR,,65.75,-19.666667
IS,HUSAVIK,,66.033333,-17.333333
IS,RAUFARHOFN,,66.45,-15.933333
US,TEXAS CITY,,29.383333,-94.916667
US,BAYTOWN,,29.733333,-95.016667
US,PALACIOS,,28.683333,-96.216667
US,PORT LAVACA,,28.616667,-96.616667
US,PORT OCONNOR,,28.45,-96.4
US,ROCKPORT,,28.016667,-97.05
US,CORPUS CHRISTI,,27.816667,-97.4
US,PORT ARANSAS,,27.833333,-97.05
US,PORT INGLESIDE,,27.816667,-97.183333
US,PORT ISABEL,,26.083333,-97.2
US,GALVESTON,,29.316667,-94.783333
US,KEY WEST,,24.55,-81.816667
US,BOCA GRANDE,,26.7,-82.333333
US,TAMPA,,27.916667,-82.45
US,ST PETERSBURG,,27.766667,-82.616667
US,TARPON SPRINGS,,28.15,-82.766667
US,PORT ST JOE,,29.816667,-85.316667
US,PANAMA CITY,,30.133333,-85.65
US,PENSACOLA,,30.4,-87.216667
US,BILOXI,,30.383333,-88.883333
US,GULFPORT,,30.35,-89.083333
US,GRAND ISLE,,29.233333,-90
US,SABINE,,29.716667,-93.866667
US,SABINE PASS,,29.733333,-93.9
BM,ST GEORGE'S,,32.383333,-64.683333
BM,HAMILTON,,32.3,-64.783333
CN,ZHOUSHAN,,30,122.1
CN,WEIHAI,,37.5,122.1
CN,LONGKOU GANG,,37.633333,120.283333
CN,PENGLAI,,37.816667,120.833333
CN,RIZHAO,,35.383333,119.566667
IL,ELAT,,29.55,34.95
US,TAWAS CITY,,44.266667,-83.5
US,ALPENA,,45.066667,-83.416667
US,ST IGNACE,,45.85,-84.716667
AO,LUANDA,,-8.8,13.25
AO,LOBITO,,-12.333333,13.566667
CA,GOOSE BAY,,53.366667,-60.3
NZ,WHANGAROA,,-35.05,173.766667
NZ,TAURANGA,,-37.633333,176.166667
NZ,WELLINGTON,,-41.283333,174.783333
NZ,MANUKAU HARBOR,,-36.933333,174.783333
DK,SAKSKOBING,,54.8,11.633333
DK,NAKSKOV,,54.833333,11.133333
CX,FLYING FISH COVE,,-10.416667,105.7
PF,UTUROA,,-16.733333,-151.45
PF,PAPEETE,,-17.533333,-149.583333
FJ,SUVA HARBOR,,-18.133333,178.416667
FJ,LEVUKA,,-17.683333,178.833333
CN,QINZHOU,,21.733333,108.583333
US,PORT MOLLER,,55.983333,-160.566667
US,PORT HEIDEN,,56.883333,-158.7
US,PILOT POINT,,57.566667,-157.6
US,EGEGIK,,58.2,-157.366667
US,NAKNEK,,58.716667,-157.016667
US,KOGGIUNG,,58.966667,-156.916667
US,DILLINGHAM,,59.033333,-158.483333
US,PLATINUM,,59.016667,-161.833333
US,SHISHMAREF,,66.25,-166.083333
US,KOTZEBUE,,66.916667,-162.583333
US,PRUDHOE BAY,,70.333333,-148.416667
US,ESCANABA,,45.766667,-87.05
US,GLADSTONE,,45.85,-87.016667
US,NAHMA,,45.833333,-86.666667
US,ST. JAMES HARBOR,,45.733333,-85.516667
US,HARBOR SPRINGS,,45.433333,-84.983333
US,TRAVERSE CITY,,44.766667,-85.616667
US,FRANKFORT,,44.633333,-86.25
IT,PORTO DI ORISTANO,,39.866667,8.55
IT,LA MADDALENA,,41.2,9.416667
IT,OLBIA,,40.916667,9.5
PG,MADANG,,-5.216667,145.816667
PG,VANIMO,,-2.683333,141.133333
GQ,MALABO,,3.75,8.783333
GQ,LUBA,,3.5,8.566667
NZ,COLLINGWOOD,,-40.683333,172.666667
NZ,AKAROA,,-43.8,172.966667
NZ,TARAKOHE,,-40.85,172.9
DK,VORDINGBORG,,55,11.9
KW,DOHA HARBOR,,29.383333,47.8
KW,AL KUWAYT,,29.35,47.933333
DJ,DJIBOUTI,,11.6,43.133333
DJ,DORALEH,,11.6,43.083333
IN,PIPAVAV BANDAR,,20.916667,71.516667
IN,OKHA,,22.466667,69.083333
IN,KOCHI (COCHIN),,9.966667,76.233333
IN,RATNAGIRI,,16.983333,73.283333
IN,PANAJI,,15.5,73.816667
CA,PORT HAWKESBURY,,45.616667,-61.366667
CA,PORT HASTINGS,,45.65,-61.4
CA,CHETICAMP,,46.633333,-61
CA,WHYCOCOMAGH,,45.966667,-61.133333
CA,GRAND NARROWS,,45.95,-60.783333
CA,LITTLE BRAS D OR,,46.25,-60.3
CA,NORTH SYDNEY,,46.216667,-60.25
CA,ARICHAT,,45.516667,-61.016667
CA,SYDNEY,,46.15,-60.2
CA,LOUISBURG,,45.916667,-59.966667
SA,SHARMAH,,27.933333,35.25
KI,ENGLISH HARBOR,,3.85,-159.366667
SV,LA UNION,,13.333333,-87.833333
SE,RONEHAMN,,57.116667,18.5
SE,FAROSUND,,57.916667,19.05
TL,DILI,,-8.533333,125.583333
ID,TANJUNG SEKONG,,-5.916667,106
ID,PANARUKAN,,-7.7,113.933333
ID,CILACAP,,-7.733333,109
ID,CELUKAN BAWANG,,-8.183333,114.833333
ID,MERAK MAS TERMINAL,,-5.916667,105.983333
IS,VESTMANNAEYJAR,,63.433333,-20.283333
JM,KINGSTON,,17.966667,-76.783333
HK,HONG KONG,,22.266667,114.2
EH,LAAYOUNE,,27.083333,-13.433333
PE,TALARA,,-4.583333,-81.283333
PE,PUERTO DE CHIMBOTE,,-9.083333,-78.616667
GR,PREVEZA,,38.95,20.75
GR,ARGOSTOLION,,38.183333,20.516667
GR,PILOS,,36.9,21.666667
FM,LELE HARBOR,,5.333333,163.033333
FM,COLONIA,,9.516667,138.133333
FM,POHNPEI HARBOR,,6.983333,158.2
CA,BROCKVILLE,,44.583333,-75.666667
CA,KINGSTON,,44.233333,-76.5
CA,PADLOPING ISLAND,,67.033333,-62.733333
CA,PANGNIRTUNG,,66.133333,-65.75
MR,NOUADHIBOU,,20.916667,-17.05
KE,MALINDI,,-3.216667,40.133333
KE,LAMU,,-2.266667,40.9
US,TERN ISLAND,,23.866667,-166.283333
US,KAUHAKO BAY,,19.383333,-155.9
US,NAPOOPOO,,19.483333,-155.933333
US,KAILUA,,19.633333,-156
US,KIHOLO,,19.866667,-155.95
US,MAHUKONA,,20.183333,-155.9
US,HANA,,20.75,-155.983333
US,KAMALO,,21.05,-156.883333
CA,PORT AUX BASQUES,,47.566667,-59.133333
CA,BURGEO,,47.6,-57.616667
FI,LOVIISA,,60.45,26.233333
FI,HAMINA,,60.566667,27.2
FI,EKENAS,,59.983333,23.433333
FI,JUSSARO,,59.833333,23.566667
FI,PORKKALA,,60.083333,24.383333
FI,KEMI,,65.733333,24.566667
FI,HIMANKA,,64,23.65
FI,KOKKOLA,,63.85,23.016667
FI,JAKOBSTAD,,63.683333,22.666667
FI,VAASA,,63.1,21.583333
FI,KASKINEN,,62.383333,21.233333
FI,KRISTINESTAD,,62.283333,21.4
FI,NAANTALI,,60.466667,22.016667
FI,SIGNILSKAR,,60.2,19.333333
FI,MARIEHAMN,,60.1,19.916667
FI,VEITSILUOTO,,65.7,24.616667
FI,PORI,,61.483333,21.8
FI,PARGAS,,60.283333,22.066667
CL,BAHIA SAN VICENTE,,-36.733333,-73.166667
CL,TALCAHUANO,,-36.7,-73.1
CL,LIRQUEN,,-36.716667,-72.983333
CL,PENCO,,-36.716667,-73
CL,COQUIMBO,,-29.95,-71.333333
CL,PUERTO CALDERA,,-27.05,-70.833333
CL,PUERTO CALDERILLA,,-27.083333,-70.866667
CL,PUERTO CHANARAL,,-26.35,-70.65
CL,TALTAL,,-25.4,-70.483333
CL,MEJILLONES,,-23.1,-70.466667
CL,CORONEL,,-37.033333,-73.166667
CL,PUERTO SARA,,-52.633333,-70.2
CL,CALETA CLARENCIA,,-52.9,-70.1
CL,PORT SAN JUAN DE LA JUAN,,-53.633333,-70.916667
CL,BAHIA HARRIS,,-53.85,-70.45
CL,CALETA MINA ELENA,,-52.683333,-71.9
CL,PUERTO CASTRO,,-42.483333,-73.766667
CL,PUERTO QUEMCHI,,-42.15,-73.483333
CL,PUERTO MONTT,,-41.483333,-72.966667
CL,PUERTO DE CORRAL,,-39.866667,-73.433333
CL,LOTA,,-37.1,-73.15
CL,CALETA PATILLOS,,-20.733333,-70.2
CL,BAHIA AGUA FRESCA,,-53.383333,-70.966667
CL,PUERTO YARTOU,,-53.883333,-70.15
CO,BUENAVENTURA,,3.883333,-77.066667
MG,MAHAJANGA,,-15.716667,46.3
MG,IHARANA,,-13.35,50
MG,ANTSOHIM BONDRONA,,-13.083333,48.833333
ID,TELUK BEO,,4.233333,126.783333
DM,ROSEAU,,15.3,-61.4
DM,PORTSMOUTH,,15.566667,-61.466667
BS,SOUTH RIDING POINT,,26.616667,-78.216667
BS,NASSAU,,25.083333,-77.35
AR,BAHIA BLANCA,,-38.783333,-62.266667
AR,PUERTO INGENIERO WHITE,,-38.8,-62.266667
AR,PUERTO NACIONAL,,-38.8,-62.283333
AR,PUERTO GALVAN,,-38.783333,-62.3
AR,SAN BLAS,,-40.566667,-62.233333
AR,PUERTO MADRYN,,-42.766667,-65.033333
AR,PUERTO SAN JULIAN,,-49.316667,-67.7
AR,USHUAIA,,-54.816667,-68.3
AR,SAN SEBASTIAN BAY,,-53.166667,-68.5
GB,SCALLOWAY,,60.133333,-1.283333
GB,LERWICK,,60.15,-1.15
GB,SULLOM VOE,,60.466667,-1.3
RU,GELENDZHIK,,44.55,38.066667
ER,ASSAB,,13,42.75
ID,NAMLEA,,-3.283333,127.083333
CN,YANTIAN,,22.583333,114.266667
CN,CHAOZHOU,,23.616667,117.083333
CN,HUIZHOU,,22.716667,114.516667
CN,DONGSHAN,,23.75,117.516667
CN,QUANZHOU,,24.883333,118.6
CN,ZHANGZHOU,,24.683333,118.15
NL,DELFZIJL,,53.333333,6.933333
NL,HARLINGEN,,53.183333,5.416667
NL,IJMUIDEN,,52.466667,4.583333
NL,HANSWEERT,,51.45,4
GB,SILLOTH,,54.866667,-3.4
GB,BARROW IN FURNESS,,54.116667,-3.233333
PT,VIANA DO CASTELO,,41.7,-8.833333
SE,SIMRISHAMN,,55.55,14.366667
GB,SEAHAM,,54.833333,-1.316667
GB,HARTLEPOOL,,54.7,-1.183333
FR,LA PALLICE,,46.166667,-1.216667
FR,LA ROCHELLE,,46.15,-1.15
GB,BURNTISLAND,,56.05,-3.233333
GB,METHIL,,56.183333,-3
FR,RADE DE CHERBOURG,,49.65,-1.633333
FR,DUNKERQUE PORT OUEST,,51.066667,2.35
GB,CHARLESTOWN,,50.333333,-4.75
GB,PENZANCE,,50.116667,-5.533333
GB,YARMOUTH HARBOUR,,50.7,-1.5
GB,PORTSMOUTH HARBOUR,,50.8,-1.1
GB,BARRY,,51.4,-3.266667
GB,CARDIFF,,51.45,-3.166667
IT,MAZARA DEL VALLO,,37.65,12.583333
IT,SAN REMO,,43.816667,7.783333
JP,SAKATA KO,,38.933333,139.816667
JP,AMAGASAKI,,34.7,135.383333
DE,GLUCKSTADT,,53.783333,9.416667
DE,WILHELMSHAVEN,,53.533333,8.166667
US,PORT MANATEE,,27.633333,-82.566667
US,CHICAGO,,41.883333,-87.6
FR,GRANVILLE,,48.833333,-1.6
FR,SAINT-MALO,,48.65,-2.016667
IN,MUMBAI (BOMBAY),,18.966667,72.866667
KE,MOMBASA,,-4.066667,39.666667
CA,WELLAND,,43,-79.25
CA,THOROLD,,43.083333,-79.716667
CA,ST CATHERINE,,43.183333,-79.283333
NL,ZAANDAM,,52.433333,4.833333
NL,AMSTERDAM,,52.366667,4.9
NL,EUROPOORT,,51.95,4.116667
NL,MAASSLUIS,,51.916667,4.25
BE,GHENT,,51.066667,3.733333
BE,BRUGES,,51.233333,3.216667
BE,NIEUWPOORT,,51.133333,2.75
MZ,MAPUTO,,-25.966667,32.583333
PA,BALBOA,,8.95,-79.566667
RO,DANUBE-BLACK SEA CANAL,,44.266667,28.183333
RO,MEDGIDIA,,44.25,28.266667
GB,CRINAN (CANAL),,56.083333,-5.566667
PL,GDANSK,,54.35,18.666667
PL,NOWY PORT,,54.416667,18.666667
TN,TUNIS,,36.8,10.25
TN,MENZEL BOURGUIBA,,37.15,9.8
IT,FIUMICINO,,41.766667,12.233333
FR,PORT-LA-NOUVELLE,,43.016667,3.066667
FR,PORT SAINT LOUIS DU RHONE,,43.383333,4.816667
ES,SEVILLA,,37.366667,-6
TR,ECEABAT,,40.183333,26.366667
TR,GELIBOLU,,40.4,26.666667
TR,TEKIRDAG,,40.983333,27.516667
TR,ISTANBUL,,41.016667,28.966667
EG,BUR SAID (PORT SAID),,31.266667,32.3
TR,CANAKKALE,,40.15,26.4
EG,EL ISMAILIYA,,30.583333,32.283333
TW,TAI-CHUNG KANG,,24.3,120.5
RU,GAVAN VYSOTSK,,60.616667,28.566667
GB,WISBECH,,52.666667,0.15
US,HOUGHTON,,47.116667,-88.566667
DK,ODENSE,,55.416667,10.383333
US,HIDDEN INLET,,54.95,-130.333333
FR,FECAMP,,49.766667,0.366667
FR,DIEPPE,,49.933333,1.083333
FR,DEAUVILLE,,49.366667,0.083333
FR,PORT DE CAEN,,49.183333,-0.35
FR,OUISTREHAM,,49.283333,-0.25
CI,ABIDJAN,,5.25,-4.016667
NO,TONSBERG,,59.283333,10.416667
SE,SODERTALJE,,59.183333,17.65
SE,VASTERAS,,59.616667,16.55
GB,SHOREHAM HARBOUR,,50.816667,-0.25
ES,AVILES,,43.6,-5.933333
DE,LUBECK,,53.883333,10.7
IT,GIOIA TAURO,,38.416667,15.9
CA,PORT COLBORNE,,42.883333,-79.25
VE,PUERTO MIRANDA,,10.766667,-71.566667
VE,LA SALINA,,10.366667,-71.466667
VE,SAN LORENZO,,9.783333,-71.066667
VE,PUNTA DE PALMAS,,10.783333,-71.583333
VE,BAJO GRANDE,,10.516667,-71.633333
DE,BRUNSBUTTEL CANAL TERMINALS,,53.9,9.15
DE,RENDSBURG,,54.3,9.683333
DE,HAMBURG,,53.55,9.933333
DE,PAPENBURG,,53.1,7.383333
IT,PORTO DI CORSINI,,44.5,12.283333
IT,PORTO DI MALAMOCCO,,45.333333,12.316667
US,BROWNSVILLE,,25.95,-97.4
US,SLIDELL,,30.266667,-89.783333
US,PORT ARTHUR,,29.833333,-93.966667
US,MACKINAW CITY,,45.783333,-84.716667
GB,SHARPNESS,,51.716667,-2.483333
US,STURGEON BAY,,44.833333,-87.383333
US,CHARLEVOIX,,45.316667,-85.266667
CA,BEAUHARNOIS,,45.316667,-73.883333
CA,COTEAU LANDING,,45.25,-74.2
CA,ST ZOTIQUE,,45.25,-74.25
CA,CORNWALL,,45.016667,-74.733333
CA,CARDINAL,,44.783333,-75.383333
YE,RAS ISA MARINE TERMINAL,,15.133333,42.6
PT,LAGOS,,37.1,-8.616667
RU,PORT BERINGOVSKY,,63.066667,179.366667
JP,YURA,,33.95,135.1
BA,NEUM,,42.916667,17.6
ES,ISLAS HORMIGAS,,37.65,-0.65
ES,LAS HORMIGAS,,41.866667,3.183333
TG,KPEME,,6.2,1.516667
ID,RAHA ROADSTEAD,,-4.85,122.733333
ID,DONGGALA,,-0.65,119.733333
ID,MANGKASA OIL TERMINAL,,-2.733333,121.066667
ID,GORONTALO,,0.5,123.05
ID,POSO,,-1.366667,120.75
ID,PAREPARE,,-4,119.616667
ID,LUWUK,,-0.95,122.8
CA,CLARKSON,,43.5,-79.6
EE,KUNDA,,59.533333,26.533333
IL,ASHQELON,,31.666667,34.5
IL,HADERA,,32.466667,34.9
JP,KIN WAN,,26.416667,127.9
JP,ISHIGAKI,,24.333333,124.166667
JP,NAKAGUSUKU,,26.266667,127.916667
CW,CARACASBAAI,,12.066667,-68.866667
CW,BULLEN BAAI,,12.183333,-69.033333
CW,SINT MICHELSBAAI,,12.133333,-69.016667
CA,CAPE YOUNG,,68.933333,-116.933333
NI,BLUEFIELDS,,12.016667,-83.75
NI,PUERTO CABEZAS,,14.016667,-83.383333
MZ,PORTO BELO,,-17.7,37.183333
MQ,FORT DE FRANCE,,14.6,-61.066667
SO,MARKA,,1.716667,44.783333
SO,BARAAWE,,1.1,44.05
PA,PUERTO ARMUELLES,,8.266667,-82.85
PA,CHARCO AZUL,,8.216667,-82.866667
PA,VACAMONTE,,8.866667,-79.666667
GB,LIVERPOOL BAY TERMINAL,,53.533333,-3.55
RO,MIDIA,,44.35,28.666667
ID,TERNATE,,0.783333,127.383333
MH,MAJURO ATOLL,,7.083333,171.383333
MH,ENITWETAK ISLAND,,11.333333,162.333333
MH,KWAJALEIN,,8.716667,167.733333
GB,PORT ELLEN,,55.633333,-6.2
GB,LAMLASH HARBOR,,55.533333,-5.116667
GB,HUNTERSTON,,55.75,-4.883333
GB,ULLAPOOL,,57.9,-5.15
GB,AULTBEA,,57.833333,-5.583333
GB,KYLE OF LOCHALSH,,57.283333,-5.716667
KP,KIMCH'AEK,,40.666667,129.2
ID,BELANAK FIELD TERMINAL,,4.15,106.25
ID,BELIDA MARINE TERMINAL,,4.133333,105.133333
ID,UDANG OILFIELD,,4.033333,106.483333
GR,MEGARA OIL TERMINAL,,37.966667,23.4
GR,ELEVSIS,,38.033333,23.55
GR,PAKHI OIL TERMINAL,,37.966667,23.383333
GR,PERAMA,,37.966667,23.566667
GR,ASPROPIRGOS,,38.033333,23.6
GR,SPETSES,,37.266667,23.166667
IR,BANDAR KHOMEYNI,,30.433333,49.083333
IR,KHARG ISLAND OIL TERMINAL,,29.233333,50.333333
IR,SIRUS OIL TERMINAL,,29.016667,49.483333
IR,JAZIREH-YE LAVAN OIL TERMINAL,,26.783333,53.333333
IR,JAZIREH-YE HORMOZ,,27.1,56.45
IR,JAZIREH-YE SIRRI,,25.9,54.55
IR,BANDAR-E PARS TERMINAL,,27.533333,52.533333
IR,BARKAN OIL-LOADING TERMINAL,,29.733333,50.166667
BR,GUAMARE OIL TERMINAL,,-4.866667,-36.283333
BR,PORTO DE MUCURIPE,,-3.716667,-38.483333
TC,COCKBURN HARBOR,,21.5,-71.533333
TC,GRAND TURK,,21.433333,-71.15
GL,NIAQORNAT,,70.8,-53.666667
UY,JOSE IGNACIO,,-34.95,-54.7
UY,PUERTO SAUCE,,-34.433333,-57.45
UY,COLONIA,,-34.466667,-57.85
ST,SAO TOME,,0.35,6.733333
SD,BESHAYER OIL TERMINAL,,19.4,37.316667
NG,ANTAN OIL TERMINAL,,4.216667,8.333333
NG,ESCRAVOS OIL TERMINAL,,5.5,5
NG,BRASS OIL TERMINAL,,4.066667,6.283333
NG,YOHO TERMINAL,,4.016667,7.466667
NG,SEA EAGLE TERMINAL,,4.8,5.316667
NG,QUA IBOE OIL TERMINAL,,4.233333,8.033333
NG,PENNINGTON OIL TERMINAL,,4.25,5.616667
NG,BONNY OFFSHORE TERMINAL,,4.183333,7.233333
NG,FORCADOS OIL TERMINAL,,5.166667,5.183333
NG,UKPOKITI MARINE TERMINAL,,5.716667,4.833333
NG,ODUDU TERMINAL,,4,7.766667
NG,OKONO TERMINAL,,3.983333,7.3
NG,OKWORI TERMINAL,,3.85,6.983333
ID,LABUHA,,-0.633333,127.466667
VI,CHARLOTTE AMALIE,,18.35,-64.933333
AU,PORT BONYTHON,,-33.016667,137.766667
AU,POINT MURAT,,-21.816667,114.183333
AU,ONSLOW,,-21.65,115.1
AU,PORT WALCOTT,,-20.65,117.183333
AU,MILNER BAY,,-13.866667,136.416667
AU,GOVE,,-12.2,136.7
AU,ARDROSSAN,,-34.433333,137.916667
AU,PORT GILES,,-35.033333,137.766667
AU,WALLAROO,,-33.933333,137.616667
AU,LUCINDA,,-18.516667,146.333333
AU,HAY POINT,,-21.283333,149.3
AU,CAPE CUVIER,,-24.216667,113.383333
AU,KLEIN POINT,,-34.966667,137.766667
AU,USELESS LOOP,,-26.083333,113.4
AU,CAPE FLATTERY HARBOR,,-14.95,145.35
CU,CARDENAS,,23.05,-81.2
CU,ISABELA DE SAGUA,,22.95,-80
CU,BAHIA DE SAGUA DE TANAMO,,20.683333,-75.333333
TN,TAZERKA OIL TERMINAL,,36.6,11.683333
TN,HOUMT SOUK,,33.883333,10.85
TN,SKHIRA,,34.283333,10.1
TN,ASHTART OIL TERMINAL,,34.283333,11.383333
TN,DIDON TERMINAL,,33.783333,11.9
ID,LINGKAS,,3.283333,117.6
ID,SENIPAH OIL TERMINAL,,-0.95,117.166667
ID,LAWI LAWI OIL TERMINAL,,-1.45,116.766667
ID,NORTH PULAU LAUT COAL TERMINAL,,-3.2,116.283333
ID,TANJUNG SANGATA,,0.366667,117.566667
IT,BAGNOLI,,40.816667,14.166667
ID,LABUHANHAJI,,-8.7,116.566667
ID,MAUMERE,,-8.616667,122.216667
ID,LARANTUKA,,-8.35,122.983333
ID,AMPENAN,,-8.566667,116.066667
ID,WAINGAPU,,-9.633333,120.216667
SE,STENUNGSUND,,58.066667,11.833333
SE,BERGKVARA,,56.383333,16.1
SE,STORA JATTERSON,,57.1,16.566667
RE,SAINT-PIERRE,,-21.35,55.466667
RE,SAINT-DENIS,,-20.866667,55.45
MY,KIRTEH OIL TERMINAL,,4.566667,103.466667
MY,TAPIS MARINE TERMINAL A,,5.516667,105.016667
MY,PORT LANGKAWI,,6.433333,99.766667
HT,JACMEL,,18.233333,-72.533333
HT,MIRAGOANE,,18.45,-73.083333
HT,PETIT GOAVE,,18.433333,-72.866667
HT,PORT AU PRINCE,,18.55,-72.35
HT,CAP HAITIEN,,19.766667,-72.2
LK,KANKESANTURAI,,9.816667,80.05
IS,KEFLAVIK,,64,-22.55
VI,PORT ALUCROIX,,17.7,-64.766667
VI,FREDERIKSTED,,17.716667,-64.883333
VI,LIMETREE BAY,,17.7,-64.75
TR,GEMLIK,,40.416667,29.116667
EG,SIDI KERIR (KURAYR),,31.1,29.616667
EG,EL HAMRA OIL TERMINAL,,30.983333,28.866667
YE,RUDUM TERMINAL,,13.983333,47.916667
YE,BALHAF,,13.966667,48.183333
DK,ENSTED,,55.016667,9.433333
SH,GEORGETOWN,,-7.933333,-14.416667
SH,NORTH POINT,,-7.883333,-14.366667
SH,JAMESTOWN,,-15.916667,-5.716667
CU,MEDIA LUNA,,20.15,-77.433333
CU,CEIBA HUECA,,20.216667,-77.316667
CU,MANZANILLO,,20.35,-77.116667
CU,JUCARO,,21.616667,-78.85
CU,TUNAS DE ZAZA,,21.633333,-79.55
CU,GUAYABAL,,20.7,-77.616667
CU,NUEVA GERONA,,21.916667,-82.8
SG,PULAU BUKOM,,1.233333,103.766667
SG,PULAU SEBAROK,,1.2,103.8
PR,AGUADILLA,,18.433333,-67.15
PR,SAN JUAN,,18.466667,-66.116667
PR,PLAYA DE HUMACAO,,18.166667,-65.75
PR,PUERTO YABUCOA,,18.05,-65.833333
PR,ARROYO,,17.966667,-66.066667
PR,LAS MAREAS,,17.95,-66.166667
PR,PLAYA DE GUANICA,,17.966667,-66.916667
PR,MAYAGUEZ,,18.2,-67.15
TR,BOTAS,,36.883333,35.933333
TR,ALANYA,,36.533333,32
TR,ORDU,,41,37.883333
TR,SINOP,,42.05,35.166667
TR,MUDANYA,,40.383333,28.883333
TR,ANTALYA OFFSHORE TERMINAL,,36.816667,30.6
TR,BOTAS NATURAL GAS TERMINAL,,41,27.983333
TR,BOTAS DORTYOL OIL TERMINAL,,36.866667,36.133333
TR,TOROS GUBRE,,36.916667,35.966667
TR,DELTA TERMINAL,,36.85,36.166667
TR,DIKILI,,39.016667,26.816667
TR,GEBZE,,40.766667,29.55
TR,YARIMCA,,40.8,29.7
VU,FORARI BAY,,-17.683333,168.55
GA,LIBREVILLE,,0.383333,9.45
GA,PORT OWENDO,,0.283333,9.5
GA,CAP LOPEZ,,-0.633333,8.716667
GA,OGUENDJO TERMINAL,,-1.466667,8.916667
GA,GAMBA OIL TERMINAL,,-2.833333,10
GA,M'BYA OIL TERMINAL,,-3.883333,10.933333
PW,MALAKAL HARBOR,,7.333333,134.45
EG,AIN SUKHNA TERMINAL,,29.583333,32.366667
EG,AL QUSAYR,,26.1,34.283333
EG,ZEIT BAY TERMINAL,,27.833333,33.6
EG,RAS SHUKHIER,,28.133333,33.283333
EG,RAS GHARIB,,28.35,33.1
EG,WADI FEIRAN,,28.75,33.2
EG,ZAFARANA TERMINAL,,29.166667,32.683333
EG,ZEIT BAY LPG TERMINAL,,27.8,33.566667
EG,EAST ZEIT TERMINAL,,27.85,33.6
EG,SHARM EL SHEIKH,,27.85,34.283333
EG,RAS BADRAN OIL TERMINAL,,28.95,33.166667
EG,RAS SUDR,,29.583333,32.7
EG,HAMRAWEIN,,26.25,34.2
KY,GEORGETOWN,,19.3,-81.383333
KY,CAYMAN BRAC,,19.75,-79.75
ID,ULEELHEUE,,5.566667,95.283333
ID,BLANGLANCANG,,5.25,97.116667
ID,JABUNG BATANGHARI MARINE TERMINAL,,-0.916667,104.066667
ID,KUALA KAPUS,,3,114.366667
ID,KUALA TANJUNG,,3.366667,99.483333
CO,POZOS COLORADOS,,11.15,-74.25
CO,MAMONAL,,10.316667,-75.516667
CO,TURBO,,8.083333,-76.733333
CO,COVENAS,,9.416667,-75.683333
CO,PUERTO PRODECO,,11.15,-74.216667
CO,COVENAS OFFSHORE TERM.,,9.5,-75.733333
MX,ISLA SAN MARCOS,,27.183333,-112.1
MX,SAN JUAN DE LA COSTA,,24.4,-110.7
MX,ROSARITO,,32.366667,-117.1
MX,PUERTO MORRO REDONDO,,28.05,-115.183333
TH,SI RACHA TERMINAL,,13.116667,100.883333
TH,KO SI CHANG TERMINAL,,13.166667,100.816667
TH,PETCHBURI TERMINAL,,13.166667,100.15
TH,RAYONG TPI TERMINAL,,12.633333,101.3
TH,SIAM SEAPORT,,13.133333,100.883333
TH,BONGKOT TERMINAL,,8.05,102.333333
TH,TANTAWAN MARINE TERMINAL,,10.083333,101.416667
TH,ERAWAN TERMINAL,,9.1,101.35
TH,BENCHAMAS TERMINAL,,10.516667,101.25
TH,SI RACHA,,13.166667,100.916667
WF,MATA-UTU,,-13.283333,-176.133333
RU,PRIMORSK,,60.366667,28.633333
CY,XEROS,,35.133333,32.833333
CY,DHEKELIA,,34.966667,33.716667
FR,BAIE DU MARIGOT,,18.066667,-63.083333
SX,COLES BAY OIL TERMINAL,,18.016667,-63.083333
PA,CHIRIQUI GRANDE,,8.95,-82.116667
PA,BOCAS DEL TORO,,9.333333,-82.233333
JM,LUCEA,,18.45,-78.166667
JM,FALMOUTH,,18.483333,-77.65
JM,RIO BUENO,,18.466667,-77.466667
MY,LUTONG,,4.466667,114
LR,CAPE PALMAS,,4.366667,-7.716667
TH,PHUKET,,7.833333,98.4
OM,MINA AL FAHL,,23.633333,58.516667
OM,QALHAT LNG TERMINAL,,22.683333,59.4
GB,NEW HOLLAND,,53.7,-0.366667
UA,ALUSHTA,,44.683333,34.416667
UA,KERCH,,45.35,36.483333
UA,KYRYLIVKA,,46.35,35.366667
UA,KHERSON,,46.616667,32.6
ID,TANJUNGPINANG,,0.916667,104.45
ID,DABO,,-0.5,104.566667
ID,TOBOALI,,-3.016667,106.45
ID,PANGKALPINANG,,-2.116667,106.133333
ID,CINTA OIL TERMINAL,,-5.5,106.233333
ID,TELUK BAYUR,,-1,100.366667
ID,ARDJUNA OIL FIELD,,-5.883333,107.716667
ID,LALANG MARINE TERMINAL,,1.183333,102.216667
ID,TANJUNGPANDAN,,-2.75,107.633333
ID,BENGKULU,,-3.783333,102.25
ID,PULAU BAAI,,-3.916667,102.283333
ID,RAMBA,,-2.616667,104.133333
ID,SEKUPANG,,1.133333,103.916667
PH,SURIGAO CITY,,9.783333,125.5
PH,MATI,,6.95,126.216667
PH,POLLOC (COTABATO),,7.35,124.216667
PH,ZAMBOANGA,,6.9,122.066667
PH,PORT OZAMIS,,8.133333,123.85
PH,ILIGAN,,8.233333,124.233333
PH,VILLANUEVA,,8.583333,124.766667
PH,BASILIAN CITY (ISABELA),,6.716667,121.966667
PH,JOLO,,6.05,121
PH,ORMOC,,11,124.6
PH,TAGBILARAN,,9.65,123.85
PH,TUBIGAN,,9.95,123.966667
PH,TOLEDO,,10.366667,123.633333
PH,BAIS,,9.6,123.116667
PH,DUMAGUETE,,9.316667,123.3
PH,PULUPANDAN,,10.516667,122.8
PH,JORDAN,,10.666667,122.583333
PH,ILOILO,,10.7,122.583333
PH,MAASIN,,10.133333,124.833333
PH,BAYBAY,,10.683333,124.8
PH,BATANGAS CITY,,13.75,121.05
PH,SAN FERNANDO HARBOR,,16.616667,120.316667
PH,CALAPAN,,13.416667,121.183333
PH,PORT BORONGAN,,11.6,125.433333
PH,CATBALOGAN,,11.766667,124.883333
PH,APARRI,,18.366667,121.633333
PH,HONDAGUA,,13.95,122.233333
PH,JOSE PANGANIBAN,,14.283333,122.683333
PH,TABACO,,13.366667,123.733333
PH,LEGAZPI PORT,,13.15,123.75
PH,ISABEL,,10.916667,124.433333
PH,TANAUAN,,11.1,125.016667
BZ,BELIZE CITY,,17.5,-88.183333
SH,EDINBURGH OF THE SEVEN SEAS,,-37.05,-12.3
SB,HONIARA,,-9.416667,159.95
SB,PORT NORO,,-8.216667,157.183333
CR,PUNTARENAS,,9.983333,-84.833333
KI,TARAWA ATOLL,,1.333333,172.933333
RU,VOSTOCHNYY,,42.75,133.083333
TZ,KILWA KIVINJE,,-8.733333,39.416667
TZ,MJIMWEMA TERMINAL,,-6.816667,39.366667
GR,NISOS NAXOS,,37.1,25.366667
CG,DJENO TERMINAL,,-4.933333,11.9
CG,N'KOSSA TERMINAL,,-5.266667,11.566667
CG,YOMBO TERMINAL,,-4.45,11.1
BQ,ORANJESTAD,,17.483333,-62.983333
DK,SKAERBAEK,,55.516667,9.616667
PG,LORENGAU,,-2.016667,147.266667
PG,WEWAK HARBOR,,-3.566667,143.633333
PG,KOKOPO,,-4.333333,152.266667
CA,DOUGLASTOWN,,48.766667,-64.383333
GB,BRAEFOOT BAY TERMINAL,,56.033333,-3.316667
GB,HOUND POINT TERMINAL,,56,-3.366667
GB,INVERGORDON,,57.683333,-4.166667
US,MAKUSHIN,,53.766667,-166.983333
GT,PUERTO BARRIOS,,15.733333,-88.6
KN,BASSETERRE,,17.3,-62.716667
KN,CHARLESTOWN,,17.133333,-62.633333
US,EL SEGUNDO,,33.916667,-118.433333
US,PRISONERS,,34.016667,-119.683333
US,VENTURA,,34.283333,-119.283333
US,ELLWOOD,,34.433333,-119.916667
US,GAVIOTA,,34.466667,-120.2
US,PISMO BEACH,,35.133333,-120.65
US,DAVENPORT,,37.016667,-122.2
AE,FATEH OIL TERMINAL,,25.583333,54.416667
AE,MUBARRAZ OIL TERMINAL,,24.433333,53.516667
AE,JAZIRAT DAS,,25.15,52.866667
AE,HULAYLAH OIL TERMINAL,,25.983333,55.933333
AE,SHARJAH OFFSHORE TERMINAL,,25.583333,55.4
AE,AJMAN,,25.416667,55.433333
AE,ZIRKUH PETROLEUM PORT,,25.016667,53
AE,ZIRKUH OIL FIELD,,24.866667,53.05
MX,CAMPECHE,,19.85,-90.55
MX,DOS BOCAS TERMINAL,,18.433333,-93.216667
MX,CAYO ARCAS TERMINAL,,20.166667,-91.983333
MX,PROGRESO,,21.283333,-89.666667
MX,SAN MIGUEL DE COZUMEL,,20.5,-86.966667
GB,STROMNESS,,58.966667,-3.3
EC,LA LIBERTAD,,-2.216667,-80.916667
US,KARLUK,,57.566667,-154.45
US,KANATAK,,57.566667,-156.033333
US,BELKOFSKI,,55.083333,-162.033333
US,SANAK,,54.483333,-162.816667
US,KNUDSON COVE,,55.466667,-131.8
US,WATERFALL,,55.3,-133.233333
US,KAKE,,56.966667,-133.933333
US,UNGA,,55.183333,-160.5
US,KATALLA,,60.2,-144.533333
US,SHEPARD POINT,,60.633333,-145.666667
US,SWANPORT,,61.083333,-146.4
US,METLAKATLA,,55.133333,-131.566667
CI,SAN PEDRO,,4.733333,-6.616667
CI,PORT BOUET,,5.233333,-3.966667
CI,ESPOIR MARINE TERMINAL,,5.05,-4.45
CI,BAOBAB MARINE TERMINAL,,4.966667,-4.55
NO,FAGERSTRAND,,59.733333,10.6
NO,KOPERVIK,,59.283333,5.316667
NO,KARSTO,,59.266667,5.516667
NO,VALLOY,,59.266667,10.5
NO,SLAGENSTANGEN,,59.316667,10.516667
NO,MONGSTAD,,60.816667,5.033333
NO,TROMSO,,69.65,18.966667
NO,ANDENES,,69.333333,16.133333
NO,HENNINGSVAER,,68.15,14.216667
NO,MO INLET,,66.316667,14.133333
NO,STURA,,60.616667,4.85
NO,BERLEVAG,,70.866667,29.1
CN,BEIHAI,,21.483333,109.066667
CN,LON SHUI TERMINAL,,20.833333,115.683333
AO,MALONGO OIL TERMINAL,,-5.433333,12.083333
AO,CABINDA,,-5.533333,12.2
AO,FUTILA TERMINAL,,-5.45,12.183333
AO,KUITO OIL FIELD,,-5.466667,11.5
AO,TAKULA TERMINAL,,-5.216667,11.783333
CA,COME BY CHANCE HARBOR,,47.8,-54.016667
LY,EZ ZUEITINA,,30.85,20.05
LY,RAS   LANUF,,30.516667,18.566667
LY,AS SIDR,,30.633333,18.366667
LY,MISRATAH,,32.366667,15.216667
LY,AZ ZAWIYA,,32.8,12.716667
LY,MARSA SABRATAH,,32.816667,12.5
LY,BOURI OIL FIELD,,33.9,12.65
PG,DARU,,-9.066667,143.2
PG,PORT MORESBY,,-9.466667,147.133333
PG,KUMUL,,-8.1,144.566667
DE,SASSNITZ,,54.516667,13.65
IT,MILAZZO,,38.216667,15.25
IT,POZZALLO,,36.716667,14.85
BN,SERIA OIL LOADING TERMINAL,,4.616667,114.316667
BN,LUMUT,,4.716667,114.45
KR,POHANG,,36.05,129.383333
KR,DAESAN HANG,,37.016667,126.4
BR,DTSE / GEGUA OIL TERMINAL,,-22.816667,-43.15
BR,GEBIG,,-23.05,-44.216667
BR,TRAMANDAI,,-29.983333,-50.133333
BR,ARATU,,-12.783333,-38.5
BR,MADRE DE DEUS,,-12.75,-38.616667
BR,SAO SEBASTIAO,,-23.8,-45.4
MY,PORT DICKSON,,2.533333,101.783333
MY,MALONG MARINE TERMINAL,,4.633333,104.816667
MY,PELABUHAN SUNGAI UDANG,,2.25,102.133333
QA,UMM SAID,,24.916667,51.566667
QA,JAZIRAT HALUL,,25.683333,52.416667
QA,AL SHAHEEN TERMINAL,,26.583333,52
QA,AL RAYYAN TERMINAL,,26.65,51.55
HN,PUERTO CORTES,,15.833333,-87.95
HN,TELA,,15.783333,-87.45
HN,LA CEIBA,,15.783333,-86.8
HN,TRUJILLO,,15.916667,-85.95
HN,PUERTO CASTILLA,,16,-85.983333
DZ,TENES,,36.533333,1.316667
IN,NAGAPPATTINAM,,10.766667,79.85
IN,CUDDALORE,,11.716667,79.766667
IN,PONDICHERRY,,11.933333,79.833333
IN,MACHILIPATNAM,,16.15,81.166667
NI,PUERTO SANDINO,,12.183333,-86.766667
AG,ST JOHNS,,17.116667,-61.85
IT,RADA DI VADO,,44.266667,8.433333
IT,VADA,,43.35,10.45
ID,KASIM TERMINAL,,-1.3,131.016667
ID,TG. SORONG,,-0.883333,131.233333
VN,CAM PHA,,21.033333,107.366667
VN,NHA TRANG,,12.25,109.233333
VN,HON GAI,,20.95,107.066667
VN,DAI HANG,,8.483333,108.683333
CA,PELEE I WEST DOCK,,41.766667,-82.683333
CA,LEAMINGTON,,42.033333,-82.6
RU,MYS ROGATYY OKTYABRSKIY,,50.733333,142.1
RU,PORONAYSK,,49.216667,143.133333
RU,UGLEGORSK,,49.083333,142.033333
RU,LESOGORSK,,49.45,142.133333
RU,ALEKSANDROVSK -SAKHALINSKIY,,50.9,142.133333
RU,LAZAREV,,52.216667,141.516667
RU,VITAZ MARINE TERMINAL,,52.7,143.55
CM,KOLE OIL TERMINAL,,4.25,8.55
CM,MOUDI MARINE TERMINAL,,4.116667,8.483333
CM,EBOME MARINE TERMINAL,,2.8,9.816667
CM,KOME KRIBI 1 MARINE TERMINAL,,2.916667,9.8
CM,LIMBOH TERMINAL,,3.983333,9.15
ID,BULA,,-3.1,130.5
GR,LIMIN KOS,,36.9,27.283333
AU,PORT LATTA,,-40.833333,145.383333
NC,BAIE DE KOUAOUA,,-21.383333,165.816667
NC,BAIE UGUE,,-21.15,165.55
JP,MORI,,42.116667,140.583333
JP,KIIRE,,31.383333,130.55
JP,MUTUREZIMA KO,,33.966667,130.866667
JP,GAMAGORI KO,,34.816667,137.216667
JP,KOBE,,34.65,135.183333
JP,IWAKUNI KO,,34.183333,132.25
JP,TOKUYAMA,,34.033333,131.816667
JP,HIROSHIMA,,34.35,132.466667
JP,AOKATA,,32.983333,129.066667
JP,FUKUI,,36.066667,136.2
JP,NISHIHARA,,26.216667,127.8
JP,ONODA,,34,131.183333
JP,MATSU-SHIMA,,32.933333,129.6
JP,NAMIKATA,,34.116667,132.9
JP,YANAI,,33.95,132.133333
VE,EL TABIAZO,,10.766667,-71.533333
VE,VENTERMINALS,,10.483333,-68.033333
VE,MARACAIBO,,10.633333,-71.6
VE,PUNTA CARDON,,11.633333,-70.233333
VE,AMUAY (BAHIA DE AMUAY),,11.75,-70.233333
VE,PUERTO CUMAREBO,,11.483333,-69.35
VE,EL PALITO,,10.483333,-68.116667
VE,GUANTA,,10.25,-64.583333
VE,PUERTO DE HIERRO,,10.633333,-62.1
VE,EL GUAMACHE,,10.9,-64.1
VE,CUMANA (PUERTO SUCRE),,10.466667,-64.183333
VE,PUERTO LA CRUZ,,10.25,-64.633333
VE,JOSE TERMINAL,,10.1,-64.85
VE,LAS PIEDRAS,,11.7,-70.216667
TT,SCARBOROUGH,,11.183333,-60.733333
NR,NAURU,,-0.533333,166.916667
BH,SITRAH,,26.166667,50.666667
CA,DALHOUSIE,,48.066667,-66.366667
GP,BASSE TERRE,,16,-61.733333
GP,PORT LOUIS,,16.416667,-61.533333
CA,CANAPORT (ST. JOHN),,45.2,-65.983333
TT,BRIGHTON,,10.25,-61.633333
TT,POINT FORTIN,,10.2,-61.7
TT,ANSE TEMBLADORA,,10.683333,-61.583333
TT,GALEOTA POINT TERMINAL,,10.133333,-60.983333
TT,POINTE A PIERRE,,10.316667,-61.466667
DE,BUTZFLETH,,53.65,9.516667
GH,SALTPOND,,5.2,-1.05
KM,FOMBONI,,-12.266667,43.75
KM,MOUTSAMOUDU,,-12.15,44.4
KM,MORONI,,-11.7,43.25
KM,DZAOUDZI,,-12.783333,45.25
MY,MOSTYN,,4.683333,118.25
MY,KUDAT,,6.883333,116.85
NF,KINGSTON,,-29.066667,167.95
MP,ROTA,,14.133333,145.15
IT,PORTOFERRAIO,,42.816667,10.333333
DO,SANCHEZ,,19.233333,-69.616667
DO,ANDRES (ANDRES LGN TERMINAL),,18.433333,-69.633333
DO,PUERTO VIEJO DE AZUA,,18.35,-70.833333
DO,CABO ROJO,,17.916667,-71.65
DO,PUNTA NIZAO OIL TERMINAL,,18.2,-70.2
DO,PUERTO PLATA,,19.8,-70.7
DO,PEPILLO SALCEDO,,19.7,-71.75
IS,BLONDUOS,,65.666667,-20.3
US,LOOP TERMINAL,,28.883333,-90.016667
SA,RAS  TANNURAH,,26.633333,50.166667
SA,JU AYMAH OIL TERMINAL,,26.933333,50.033333
SA,JU AYMAH LPG TERMINAL,,26.866667,50.05
SA,RAS AL MISHAB,,28.116667,48.633333
SA,RAS AL KHAFJI,,28.433333,48.583333
MM,SITTWE,,20.133333,92.9
MM,YETAGUN MARINE TERMINAL,,13.05,96.85
CN,QINGDAO GANG,,36.033333,120.266667
CN,BAYUQUAN,,40.3,122.083333
CN,CHANGSHU,,31.766667,120.95
CN,DANDONG,,39.816667,124.15
CN,LANSHAN,,30.1,119.366667
CN,ZHAPU,,30.583333,121.083333
CN,CHANGZHOU,,31.966667,119.983333
CN,JINZHOU WAN,,40.75,121.1
CN,SUIZHANG GANG,,40.066667,121.05
US,ALABASTER,,44.183333,-83.55
US,ROCKPORT,,45.2,-83.383333
US,ROGERS CITY,,45.45,-83.816667
US,PORT HOPE,,43.95,-82.7
AO,PALANCA TERMINAL,,-6.95,12.4
AO,NAMIBE,,-15.2,12.15
AO,ESTRELA OIL FIELD,,-6.45,12.4
AO,PORTO AMBOIM,,-10.733333,13.75
AO,SUMBE,,-11.2,13.833333
AO,GIRASSOL TERMINAL,,-7.65,11.683333
JO,AL AQABAH,,29.516667,35
KI,CANTON ISLAND,,-2.833333,-171.716667
IT,MELILLI OIL TERMINAL,,37.116667,15.25
FJ,SAVUSAVU BAY,,-16.766667,179.333333
CN,SANYA,,18.316667,109.45
US,EKUK,,58.816667,-158.566667
US,CLARKS POINT,,58.85,-158.55
US,NASH HARBOR,,60.2,-166.983333
US,ST MICHAEL,,63.483333,-162.033333
US,UNALAKLEET,,63.883333,-160.783333
US,SOLOMON,,64.55,-164.4
US,NOME,,64.5,-165.416667
US,GRANTLEY HARBOR,,65.266667,-166.333333
US,SAVOONGA,,63.683333,-170.4
US,DEERING,,66.083333,-162.733333
US,WAINWRIGHT,,70.65,-160
US,BARROW,,71.283333,-156.783333
US,BERNARD HARBOR,,70.133333,-143.633333
US,VILLAGE COVE,,57.133333,-170.266667
IT,SARROCH OIL TERMINAL,,39.083333,9.033333
IT,PORTO PONTE ROMANO,,39.05,8.466667
PG,LAE,,-6.733333,147
LB,SAYDA,,33.5,35.35
LB,SIDON/ZAHRANI TERMINAL,,33.533333,35.316667
GQ,BATA,,1.866667,9.766667
GQ,PUNTA EUROPA TERMINAL,,3.783333,8.716667
GQ,CEIBA TERMINAL,,1.416667,9.233333
GQ,SERPENTINA TERMINAL,,3.8,8.083333
DK,STIGSNAESVAERKET,,55.2,11.25
DK,GULFHAVEN,,55.2,11.266667
KW,MINA AZ ZAWR,,28.733333,48.4
KW,MINA ASH SHUAYBAH,,29.033333,48.166667
KW,MINA ABD ALLAH,,29.016667,48.166667
KW,MINA AL AHMADI,,29.066667,48.166667
IN,MANDVI,,22.833333,69.35
IN,VERAVAL,,20.9,70.366667
IN,JAWAHARLAL NEHRU PORT (NHAVA SHIVA),,18.95,72.95
IN,CALICUT (KOZHIKODE),,11.25,75.766667
IN,BEYPORE,,11.166667,75.8
IN,KOLACHEL,,8.166667,77.25
IN,TRIVANDRUM,,8.483333,76.95
IN,SIKKA,,22.433333,69.833333
IN,MUNDRA,,22.733333,69.7
IN,DAHEJ,,21.7,72.533333
IN,BELEKERI,,14.7,74.266667
IN,VADINAR TERMINAL,,22.516667,69.7
IN,NAVLAKHI,,22.95,70.45
ID,POLENG OIL FIELD,,-6.65,112.916667
SA,DUBA,,27.566667,35.533333
SA,DUBA BULK PLANT TANKER TERMINAL,,27.316667,35.9
SV,ACAJUTLA OFFSHORE TERMINAL,,13.583333,-89.866667
SE,SLITE,,57.7,18.816667
SE,STORUGNS,,57.833333,18.8
ID,BANTEN,,-6.016667,105.966667
ID,ANYER LOR,,-6.05,105.916667
ID,TEGAL,,-6.85,109.133333
ID,PEKALONGAN,,-6.85,109.7
ID,SEMARANG,,-6.95,110.416667
ID,REMBANG,,-6.7,111.35
ID,TUBAN,,-6.733333,112.15
ID,GRESIK,,-7.15,112.65
ID,TANJUNG GEREM,,-5.966667,105.983333
ID,PROBOLINGGO,,-7.716667,113.216667
JM,PORT ESQUIVEL,,17.883333,-77.133333
JM,PORT KAISER,,17.866667,-77.6
JM,SAVANNAH LA MAR,,18.2,-78.133333
LT,BUTINGE OIL TERMINAL,,56.033333,20.95
US,BARBERS POINT TERMINAL,,21.266667,-158.1
PE,CALETA LOBITOS,,-4.45,-81.283333
PE,PUERTO CABO BLANCO,,-4.25,-81.233333
PE,PAITA,,-5.083333,-81.116667
PE,PUERTO ILO,,-17.633333,-71.366667
PE,BAHIA DE ANCON,,-11.75,-77.183333
PE,CHANCAY,,-11.583333,-77.25
PE,PUERTO DE HUACHO,,-11.116667,-77.616667
PE,PUERTO SUPE,,-10.8,-77.75
PE,PUNTA LOBITOS (BAHIA DE HUARMEY),,-10.1,-78.166667
PE,PIMENTAL,,-6.833333,-79.933333
PE,PUERTO BAYOVAR,,-5.833333,-81.05
PE,CONCHAN OIL TERMINAL,,-12.166667,-77
PE,LA PAMPILLA OIL TERMINAL,,-11.933333,-77.133333
GR,KERKIRA,,39.616667,19.933333
GR,ITEA,,38.433333,22.416667
GR,AIYION,,38.25,22.083333
GR,YITHION,,36.75,22.566667
FM,MOEN,,7.433333,151.833333
CA,POND INLET,,72.75,-76.75
BS,COCKBURN TOWN,,24.05,-74.533333
JM,ROCKY POINT,,17.816667,-77.15
MR,NOUAKCHOTT,,18.033333,-16.033333
KE,KILIFI,,-3.633333,39.866667
US,NONOPAPA,,21.866667,-160.233333
US,HONOKAA,,20.1,-155.466667
US,HONUAPO,,19.083333,-155.55
US,MILOLII,,19.183333,-155.9
US,KAUNAKAKAI,,21.083333,-157.033333
GE,SOKHUMI,,42.983333,40.983333
GE,SUPSA MARINE TERMINAL,,42.1,41.716667
FI,KANTLAX,,63.416667,22.283333
FI,HELLNAS,,63.283333,22.233333
FI,TAHKOLUOTO,,61.633333,21.4
CL,BAHIA QUINTERO (VENTANAS),,-32.766667,-71.533333
CL,BAHIA HERRADURA GUAYACAN,,-29.966667,-71.366667
CL,HUASCO,,-28.466667,-71.25
CL,TOCOPILLA,,-22.083333,-70.233333
CL,RADA DE ARICA,,-18.466667,-70.333333
CL,PUERTO NATALES,,-51.716667,-72.566667
CL,PUERTO WILLIAMS,,-54.933333,-67.6
CL,PUNTA DELGADA,,-52.466667,-69.55
CL,RADA PUNTA ARENAS,,-53.166667,-70.9
CO,TUMACO,,1.816667,-78.75
MG,MAINTIRANO,,-18.066667,44.016667
MG,FARADOFAY,,-25.033333,47
MG,MANAKARA,,-22.116667,48.05
MG,MAROANTSETRA,,-15.45,49.816667
MG,ANDOANY,,-13.4,48.3
MG,MORONDAVA,,-20.283333,44.3
MG,TOLIARA,,-23.366667,43.666667
MG,MANANJARY,,-21.25,48.333333
IQ,KHAWR AL AMAYA,,29.783333,48.8
IQ,AL-BASRA OIL TERMINAL,,29.683333,48.816667
SN,RUFISQUE,,14.7,-17.283333
SN,M BAO OIL TERMINAL,,14.716667,-17.4
BS,CLIFTON PIER,,25,-77.55
BS,MATTHEW TOWN,,20.95,-73.683333
RU,ANAPA,,44.883333,37.316667
RU,ADLER,,43.433333,39.933333
RU,KAVKAZ OIL TERMINAL,,45.333333,36.65
BQ,GOTO OIL TERMINAL,,12.216667,-68.383333
BQ,SALINA,,12.083333,-68.283333
BQ,KRALENDIJK,,12.15,-68.283333
NL,ROTTERDAM,,51.9,4.483333
NL,DEN HELDER,,52.966667,4.783333
NL,HOEK VAN HOLLAND,,51.95,4.133333
NL,VLAARDINGEN,,51.9,4.35
NL,SCHIEDAM,,51.9,4.4
NL,EEMSHAVEN,,53.45,6.833333
GB,RENFREW,,55.883333,-4.383333
GB,AYR,,55.466667,-4.633333
GB,STRANRAER,,54.9,-5.033333
GB,BANGOR,,54.65,-5.666667
GB,FORT WILLIAM,,56.816667,-5.116667
GB,LOCHALINE,,56.55,-5.766667
KP,NAJIN,,42.233333,130.3
PL,DARLOWO,,54.433333,16.416667
IE,SLIGO,,54.266667,-8.466667
IE,DROGHEDA,,53.716667,-6.3
GB,LANCASTER,,54.05,-2.783333
SE,UDDEVALLA,,58.35,11.916667
SE,AHUS,,55.933333,14.316667
MY,KUALA TRENGGANU,,5.35,103.133333
DK,HADERSLEV,,55.25,9.5
DK,KOLDING,,55.483333,9.5
US,ASHTABULA,,41.9,-80.8
MX,PUERTO VALLARTA,,20.616667,-105.266667
MX,LAZARO CARDENAS,,17.933333,-102.166667
MX,PUERTO MADERO,,14.7,-92.45
GB,BELFAST,,54.616667,-5.9
GB,CHATHAM DOCKS,,51.4,0.55
GB,LONDON,,51.5,-0.083333
FR,LES SABLES D' OLONNE,,46.5,-1.8
UA,YUZHNYY,,46.6,31.016667
UA,MYKOLAYIV,,46.95,31.983333
US,CORNUCOPIA,,46.866667,-91.1
GB,DUNDEE,,56.466667,-2.95
GB,PERTH,,56.4,-3.45
GB,ABERDEEN,,57.15,-2.083333
MX,ALTAMIRA,,22.483333,-97.85
NO,SANDNES,,58.85,5.75
NO,FLEKKEFJORDEN,,58.3,6.666667
NO,TVEDESTRAND,,58.616667,8.933333
NO,SANDEFJORDEN,,59.116667,10.233333
NO,SUNNDALSORA,,62.683333,8.55
NO,NORHEIMSUND,,60.366667,6.15
NO,ODDA,,60.083333,6.55
SE,GUMBODAHAMN,,64.233333,21.1
SE,HUDIKSVALL,,61.733333,17.116667
SE,NYKOPING,,58.75,17.016667
SE,HALLSTAVIK,,60.05,18.583333
GB,SOUTHAMPTON,,50.9,-1.4
GB,CAERNARVON,,53.15,-4.266667
DE,KIEL,,54.316667,10.133333
DE,ECKERNFORDE,,54.483333,9.833333
DE,FLENSBURG,,54.8,9.433333
KR,INCHON,,37.466667,126.616667
MY,TANJUNG PELEPAS,,1.35,103.55
CA,KEMANO BAY,,53.483333,-128.133333
CA,PORT MAITLAND,,42.85,-79.583333
AU,DEVONPORT,,-41.183333,146.366667
JP,HITACHI,,36.5,140.633333
JP,KANAZAWA,,36.616667,136.6
JP,NIIGATA KO,,37.916667,139.05
JP,TAGONOURA KO,,35.133333,138.7
JP,SHIMMINATO,,36.766667,137.116667
JP,TAKUMA,,34.216667,133.683333
JP,YAHATA,,33.866667,130.816667
HR,RIJEKA LUKA,,45.333333,14.433333
US,NEW BERN,,35.1,-77.05
US,NEWARK,,40.7,-74.15
TT,POINT LISAS PORT,,10.383333,-61.483333
DE,CUXHAVEN,,53.866667,8.716667
IT,MONFALCONE,,45.783333,13.55
IT,PORTO DI CHIOGGIA,,45.233333,12.3
ES,MAHON,,39.883333,4.266667
NZ,GISBORNE,,-38.666667,178.033333
GB,HAYLE,,50.183333,-5.416667
NZ,PICTON,,-41.283333,174.016667
NZ,OTAGO HARBOR,,-45.816667,170.633333
DK,NAESTVED,,55.233333,11.75
FI,INKOO,,60.016667,23.916667
FI,NYKARLEBY,,63.516667,22.533333
FI,TURKU,,60.45,22.233333
BS,FREEPORT,,26.516667,-78.783333
AR,LA PLATA,,-34.833333,-57.883333
RU,KALININGRAD,,54.7,20.483333
RU,ROSTOV-NA-DONU,,47.166667,39.716667
GM,BANJUL,,13.45,-16.566667
CA,TRENTON,,44.1,-77.566667
CA,NIAGARA,,43.25,-79.066667
CA,QUEENSTON,,43.166667,-79.066667
CA,CONTRECOUR,,45.883333,-73.2
EE,PARNU,,58.383333,24.5
NL,DORDRECHT,,51.816667,4.65
NL,VLISSINGEN,,51.45,3.6
GW,RIO CACHEU,,12.283333,-16.233333
GW,BISSAU,,11.866667,-15.633333
CA,COPPERMINE,,67.8,-115.05
MZ,CHINDE,,-18.566667,36.5
MZ,QUELIMANE,,-17.883333,36.883333
MZ,INHAMBANE,,-23.916667,35.4
MZ,PEBANE,,-17.266667,38.15
GN,VICTORIA,,10.816667,-14.566667
GN,KAMSAR,,10.633333,-14.616667
GN,BENTI,,9.166667,-13.2
PA,PEDREGAL,,8.35,-82.433333
RO,SULINA,,45.166667,29.666667
RO,BRAILA,,45.25,27.983333
RO,GALATI,,45.416667,28.083333
RO,CERNAVODA,,44.333333,28.05
RO,BASARABI,,44.166667,28.433333
